[
    {
      "empty_slots": 8,
      "extra": {
        "ebikes": 9,
        "has_ebikes": true,
        "normal_bikes": 15,
        "online": true,
        "uid": 141
      },
      "free_bikes": 24,
      "id": "77e6513f3a43c3054c71144be4132e59",
      "latitude": 41.4090202,
      "longitude": 2.1954152,
      "name": "C/ BILBAO, 174",
      "timestamp": "2024-05-28T14:45:00.612000Z"
    },
    {
      "empty_slots": 24,
      "extra": {
        "ebikes": 0,
        "has_ebikes": true,
        "normal_bikes": 2,
        "online": true,
        "uid": 162
      },
      "free_bikes": 2,
      "id": "9db9646e880ada6e547ad2303c1fd1cb",
      "latitude": 41.4038559,
      "longitude": 2.2084257,
      "name": "C/ RAMON TURRÓ, 292",
      "timestamp": "2024-05-28T14:45:00.557000Z"
    },
    {
      "empty_slots": 23,
      "extra": {
        "ebikes": 1,
        "has_ebikes": true,
        "normal_bikes": 0,
        "online": true,
        "uid": 222
      },
      "free_bikes": 1,
      "id": "b7592cd6043ae21ee3e41b2fa96d9a33",
      "latitude": 41.4013296,
      "longitude": 2.1574439,
      "name": "C/ DEL CANÓ, 1",
      "timestamp": "2024-05-28T14:45:00.477000Z"
    },
    {
      "empty_slots": 16,
      "extra": {
        "ebikes": 1,
        "has_ebikes": true,
        "normal_bikes": 4,
        "online": true,
        "uid": 135
      },
      "free_bikes": 5,
      "id": "468cdd79007124037cb4c49834f0f4c4",
      "latitude": 41.4120452,
      "longitude": 2.1972673,
      "name": "GRAN VIA DE LES CORTS CATALANES,  981",
      "timestamp": "2024-05-28T14:45:00.680000Z"
    },
    {
      "empty_slots": 15,
      "extra": {
        "ebikes": 2,
        "has_ebikes": true,
        "normal_bikes": 15,
        "online": true,
        "uid": 155
      },
      "free_bikes": 17,
      "id": "c0404e92e0f3547d112fb945e7cb4e0f",
      "latitude": 41.4070139,
      "longitude": 2.2074469,
      "name": "C/ PUJADES, 311/ FLUVIÀ",
      "timestamp": "2024-05-28T14:45:00.574000Z"
    },
    {
      "empty_slots": 17,
      "extra": {
        "ebikes": 0,
        "has_ebikes": true,
        "normal_bikes": 1,
        "online": true,
        "uid": 479
      },
      "free_bikes": 1,
      "id": "a4d7432e72c9001d3af12d71335a63a4",
      "latitude": 41.430623,
      "longitude": 2.1671068,
      "name": "PG. FABRA I PUIG, 344",
      "timestamp": "2024-05-28T14:44:59.999000Z"
    },
    {
      "empty_slots": 14,
      "extra": {
        "ebikes": 2,
        "has_ebikes": true,
        "normal_bikes": 2,
        "online": true,
        "uid": 246
      },
      "free_bikes": 4,
      "id": "1e26d529b774405d07a7faa89bc2bbeb",
      "latitude": 41.4228449,
      "longitude": 2.1866363,
      "name": "C/ GARCILASO, 77",
      "timestamp": "2024-05-28T14:45:00.432000Z"
    },
    {
      "empty_slots": 16,
      "extra": {
        "ebikes": 3,
        "has_ebikes": true,
        "normal_bikes": 5,
        "online": true,
        "uid": 259
      },
      "free_bikes": 8,
      "id": "10fc4e8d4de922b51c0ebdf29a61def8",
      "latitude": 41.4391174,
      "longitude": 2.1858025,
      "name": "C/ DE BARTRINA, 14",
      "timestamp": "2024-05-28T14:45:00.403000Z"
    },
    {
      "empty_slots": 1,
      "extra": {
        "ebikes": 6,
        "has_ebikes": true,
        "normal_bikes": 16,
        "online": true,
        "uid": 126
      },
      "free_bikes": 22,
      "id": "e51a6f5b087c0d367d3ad07e00dd54e1",
      "latitude": 41.380628,
      "longitude": 2.1822815,
      "name": "PG. DE COLOM /VIA LAIETANA",
      "timestamp": "2024-05-28T14:45:00.713000Z"
    },
    {
      "empty_slots": 10,
      "extra": {
        "ebikes": 15,
        "has_ebikes": true,
        "normal_bikes": 1,
        "online": true,
        "uid": 315
      },
      "free_bikes": 16,
      "id": "aa3c9dc88d9b7e74bdd960c5d2a42055",
      "latitude": 41.4156285,
      "longitude": 2.1817876,
      "name": "C/ DEL GUINARDÓ, 32-38",
      "timestamp": "2024-05-28T14:45:00.293000Z"
    },
    {
      "empty_slots": 25,
      "extra": {
        "ebikes": 1,
        "has_ebikes": true,
        "normal_bikes": 7,
        "online": true,
        "uid": 251
      },
      "free_bikes": 8,
      "id": "dedcd93fbe85671e73c79baf58bd7fed",
      "latitude": 41.4253643,
      "longitude": 2.1852073,
      "name": "C/ CARDENAL TEDESCHINI, 13",
      "timestamp": "2024-05-28T14:45:00.421000Z"
    },
    {
      "empty_slots": 8,
      "extra": {
        "ebikes": 10,
        "has_ebikes": true,
        "normal_bikes": 8,
        "online": true,
        "uid": 397
      },
      "free_bikes": 18,
      "id": "db1347c516927c55b4fa54339d83874f",
      "latitude": 41.3889129,
      "longitude": 2.1993105,
      "name": "AV. LITORAL (PG MARÍTIM DEL PORT OLÍMPIC)",
      "timestamp": "2024-05-28T14:45:00.179000Z"
    },
    {
      "empty_slots": 1,
      "extra": {
        "ebikes": 2,
        "has_ebikes": true,
        "normal_bikes": 23,
        "online": true,
        "uid": 358
      },
      "free_bikes": 25,
      "id": "23f4d8de839b3faed12399069fc003bb",
      "latitude": 41.3872437,
      "longitude": 2.1793035,
      "name": "C/ GOMBAU, 24",
      "timestamp": "2024-05-28T14:45:00.227000Z"
    },
    {
      "empty_slots": 20,
      "extra": {
        "ebikes": 5,
        "has_ebikes": true,
        "normal_bikes": 2,
        "online": true,
        "uid": 289
      },
      "free_bikes": 7,
      "id": "6522571fe7fa2aaecb16c6049b211ec2",
      "latitude": 41.4166982,
      "longitude": 2.1909952,
      "name": "C/ MÚRCIA, 64",
      "timestamp": "2024-05-28T14:45:00.347000Z"
    },
    {
      "empty_slots": 20,
      "extra": {
        "ebikes": 4,
        "has_ebikes": true,
        "normal_bikes": 0,
        "online": true,
        "uid": 493
      },
      "free_bikes": 4,
      "id": "7430c4b147d738a9d824c337da6c9071",
      "latitude": 41.419965,
      "longitude": 2.1401823,
      "name": "PG. VALL D'HEBRÓN, 80",
      "timestamp": "2024-05-28T14:44:59.979000Z"
    },
    {
      "empty_slots": 18,
      "extra": {
        "ebikes": 4,
        "has_ebikes": true,
        "normal_bikes": 4,
        "online": true,
        "uid": 248
      },
      "free_bikes": 8,
      "id": "837b1735c1425961256c0028bc839c0e",
      "latitude": 41.4182129,
      "longitude": 2.1904005,
      "name": "C/ PALÈNCIA, 31",
      "timestamp": "2024-05-28T14:45:00.423000Z"
    },
    {
      "empty_slots": 12,
      "extra": {
        "ebikes": 7,
        "has_ebikes": true,
        "normal_bikes": 1,
        "online": true,
        "uid": 167
      },
      "free_bikes": 8,
      "id": "03b90625659c5bcdf8466510c9c9cdb3",
      "latitude": 41.4023354,
      "longitude": 2.2105777,
      "name": "C/ BAC DE RODA, 11",
      "timestamp": "2024-05-28T14:45:00.552000Z"
    },
    {
      "empty_slots": 35,
      "extra": {
        "ebikes": 1,
        "has_ebikes": true,
        "normal_bikes": 0,
        "online": true,
        "uid": 338
      },
      "free_bikes": 1,
      "id": "ac4a41e000abdda3d9494e46846b8a13",
      "latitude": 41.3977227,
      "longitude": 2.1194557,
      "name": "AV. JOSEP VICENÇ FOIX, 63",
      "timestamp": "2024-05-28T14:45:00.260000Z"
    },
    {
      "empty_slots": 3,
      "extra": {
        "ebikes": 0,
        "has_ebikes": true,
        "normal_bikes": 18,
        "online": true,
        "uid": 36
      },
      "free_bikes": 18,
      "id": "485e3dcc8a771641516691cbcf3631e2",
      "latitude": 41.3850616,
      "longitude": 2.1766834,
      "name": "AV. DE LA CATEDRAL, 6",
      "timestamp": "2024-05-28T14:45:00.842000Z"
    },
    {
      "empty_slots": 5,
      "extra": {
        "ebikes": 25,
        "has_ebikes": true,
        "normal_bikes": 12,
        "online": true,
        "uid": 400
      },
      "free_bikes": 37,
      "id": "b1dadc34eb4621be3322c4989aadbce6",
      "latitude": 41.3694508,
      "longitude": 2.1879597,
      "name": "MOLL ORIENTAL",
      "timestamp": "2024-05-28T14:45:00.176000Z"
    },
    {
      "empty_slots": 13,
      "extra": {
        "ebikes": 4,
        "has_ebikes": true,
        "normal_bikes": 6,
        "online": true,
        "uid": 262
      },
      "free_bikes": 10,
      "id": "ce794ac7bd8798e23eae41c3e13e8384",
      "latitude": 41.3790954665734,
      "longitude": 2.1516210083711993,
      "name": "C/ ENTENÇA, 70",
      "timestamp": "2024-05-28T14:45:00.400000Z"
    },
    {
      "empty_slots": 22,
      "extra": {
        "ebikes": 1,
        "has_ebikes": true,
        "normal_bikes": 0,
        "online": true,
        "uid": 214
      },
      "free_bikes": 1,
      "id": "14facb5b151f405ddaa251d5e5a19680",
      "latitude": 41.3952027,
      "longitude": 2.1334873,
      "name": "C/ JOSÉ DE  AGULLÓ, 9",
      "timestamp": "2024-05-28T14:45:00.486000Z"
    },
    {
      "empty_slots": 16,
      "extra": {
        "ebikes": 1,
        "has_ebikes": true,
        "normal_bikes": 2,
        "online": true,
        "uid": 125
      },
      "free_bikes": 3,
      "id": "1a05be16670c85752010f0efe4698995",
      "latitude": 41.3834753,
      "longitude": 2.194735,
      "name": "PG. MARíTIM, 31 B (ANNEXA A LA  12)",
      "timestamp": "2024-05-28T14:45:00.720000Z"
    },
    {
      "empty_slots": 23,
      "extra": {
        "ebikes": 0,
        "has_ebikes": true,
        "normal_bikes": 0,
        "online": true,
        "uid": 470
      },
      "free_bikes": 0,
      "id": "baac32fbb8447abb62b24476341a1999",
      "latitude": 41.4432762,
      "longitude": 2.1746238,
      "name": "C/ GÒNGORA, 23",
      "timestamp": "2024-05-28T14:45:00.018000Z"
    },
    {
      "empty_slots": 17,
      "extra": {
        "ebikes": 3,
        "has_ebikes": true,
        "normal_bikes": 1,
        "online": true,
        "uid": 81
      },
      "free_bikes": 4,
      "id": "d6b22a7060e924a9d72bf714bb7abe66",
      "latitude": 41.3790718,
      "longitude": 2.1490553,
      "name": "C/ VILAMARÍ,  61",
      "timestamp": "2024-05-28T14:45:00.803000Z"
    },
    {
      "empty_slots": 4,
      "extra": {
        "ebikes": 5,
        "has_ebikes": true,
        "normal_bikes": 11,
        "online": true,
        "uid": 134
      },
      "free_bikes": 16,
      "id": "285fb40978472b0c0755ff451abf3dff",
      "latitude": 41.4113024,
      "longitude": 2.1987258,
      "name": "C/ BAC DE RODA, 157",
      "timestamp": "2024-05-28T14:45:00.681000Z"
    },
    {
      "empty_slots": 21,
      "extra": {
        "ebikes": 10,
        "has_ebikes": true,
        "normal_bikes": 7,
        "online": true,
        "uid": 375
      },
      "free_bikes": 17,
      "id": "6bbc3329c88fa6e540166c5298c00686",
      "latitude": 41.3720293,
      "longitude": 2.1804468,
      "name": "WORLD TRADE CENTER",
      "timestamp": "2024-05-28T14:45:00.206000Z"
    },
    {
      "empty_slots": 20,
      "extra": {
        "ebikes": 5,
        "has_ebikes": true,
        "normal_bikes": 6,
        "online": true,
        "uid": 136
      },
      "free_bikes": 11,
      "id": "986b6d406122255e35f3612c23453986",
      "latitude": 41.4139298,
      "longitude": 2.2017955,
      "name": "GRAN VIA DE LES CORTS CATALANES,  1062",
      "timestamp": "2024-05-28T14:45:00.679000Z"
    },
    {
      "empty_slots": 11,
      "extra": {
        "ebikes": 8,
        "has_ebikes": true,
        "normal_bikes": 0,
        "online": true,
        "uid": 61
      },
      "free_bikes": 8,
      "id": "689309692643da94970d523bb63d78fe",
      "latitude": 41.39352,
      "longitude": 2.166797,
      "name": "C/ ARAGÓ, 288",
      "timestamp": "2024-05-28T14:45:00.822000Z"
    },
    {
      "empty_slots": 24,
      "extra": {
        "ebikes": 5,
        "has_ebikes": true,
        "normal_bikes": 0,
        "online": true,
        "uid": 76
      },
      "free_bikes": 5,
      "id": "143a26af73018f0c2baf57f161c4df3c",
      "latitude": 41.3917666,
      "longitude": 2.1532163,
      "name": "C/ CÒRSEGA, 216",
      "timestamp": "2024-05-28T14:45:00.808000Z"
    },
    {
      "empty_slots": 7,
      "extra": {
        "ebikes": 10,
        "has_ebikes": true,
        "normal_bikes": 10,
        "online": true,
        "uid": 161
      },
      "free_bikes": 20,
      "id": "d1d49e0df5efb64832fb29b9925ad5fe",
      "latitude": 41.3953011,
      "longitude": 2.1965965,
      "name": "C/ RAMON TURRÓ, 91",
      "timestamp": "2024-05-28T14:45:00.557000Z"
    },
    {
      "empty_slots": 22,
      "extra": {
        "ebikes": 2,
        "has_ebikes": true,
        "normal_bikes": 0,
        "online": true,
        "uid": 229
      },
      "free_bikes": 2,
      "id": "20489f631072cc28555f2f9df8327ecd",
      "latitude": 41.4050968,
      "longitude": 2.1569161,
      "name": "C/ DE LA SANTACREU, 2 (PL.DE LA VIRREINA)",
      "timestamp": "2024-05-28T14:45:00.457000Z"
    },
    {
      "empty_slots": 26,
      "extra": {
        "ebikes": 5,
        "has_ebikes": true,
        "normal_bikes": 1,
        "online": true,
        "uid": 247
      },
      "free_bikes": 6,
      "id": "731238b3f7db22b5ac80282218d431f2",
      "latitude": 41.4219291,
      "longitude": 2.1849107,
      "name": "C/ FELIPE II, 112",
      "timestamp": "2024-05-28T14:45:00.424000Z"
    },
    {
      "empty_slots": 2,
      "extra": {
        "ebikes": 2,
        "has_ebikes": true,
        "normal_bikes": 23,
        "online": true,
        "uid": 45
      },
      "free_bikes": 25,
      "id": "e2ee896f2f3d4b130d38151de25b0b6a",
      "latitude": 41.391466,
      "longitude": 2.189371,
      "name": "C/ SARDENYA, 66",
      "timestamp": "2024-05-28T14:45:00.835000Z"
    },
    {
      "empty_slots": 27,
      "extra": {
        "ebikes": 4,
        "has_ebikes": true,
        "normal_bikes": 0,
        "online": true,
        "uid": 362
      },
      "free_bikes": 4,
      "id": "092ea1f184d8d1755f3a5a91104916fe",
      "latitude": 41.396994,
      "longitude": 2.1706323,
      "name": "C/ BAILÉN, 100",
      "timestamp": "2024-05-28T14:45:00.224000Z"
    },
    {
      "empty_slots": 16,
      "extra": {
        "ebikes": 10,
        "has_ebikes": true,
        "normal_bikes": 2,
        "online": true,
        "uid": 377
      },
      "free_bikes": 12,
      "id": "a2ad3c3ea5fb48794a4f05547bf45a87",
      "latitude": 41.3776292,
      "longitude": 2.1836886,
      "name": "PL. ICTÍNEO",
      "timestamp": "2024-05-28T14:45:00.204000Z"
    },
    {
      "empty_slots": 17,
      "extra": {
        "ebikes": 1,
        "has_ebikes": true,
        "normal_bikes": 8,
        "online": true,
        "uid": 382
      },
      "free_bikes": 9,
      "id": "408725c15ad93ef162f0e92a0cfec7d1",
      "latitude": 41.4038902,
      "longitude": 2.2041137,
      "name": "C/ LOPE DE VEGA, 79",
      "timestamp": "2024-05-28T14:45:00.198000Z"
    },
    {
      "empty_slots": 24,
      "extra": {
        "ebikes": 0,
        "has_ebikes": true,
        "normal_bikes": 2,
        "online": true,
        "uid": 240
      },
      "free_bikes": 2,
      "id": "762363dddf5baf047e2a56deba1b37ca",
      "latitude": 41.4175595,
      "longitude": 2.1877153,
      "name": "C/ JOSEP ESTIVILL, 32",
      "timestamp": "2024-05-28T14:45:00.437000Z"
    },
    {
      "empty_slots": 13,
      "extra": {
        "ebikes": 2,
        "has_ebikes": true,
        "normal_bikes": 12,
        "online": true,
        "uid": 2
      },
      "free_bikes": 14,
      "id": "f3171a128fc9e9f7ab0f70e9334d3860",
      "latitude": 41.3954877,
      "longitude": 2.1771985,
      "name": "C/ ROGER DE FLOR, 126",
      "timestamp": "2024-05-28T14:45:00.883000Z"
    },
    {
      "empty_slots": 13,
      "extra": {
        "ebikes": 7,
        "has_ebikes": true,
        "normal_bikes": 0,
        "online": true,
        "uid": 101
      },
      "free_bikes": 7,
      "id": "0a7556a190afc2de3bc42eef1b8b5515",
      "latitude": 41.392878,
      "longitude": 2.143411,
      "name": "AV. DIAGONAL, 602",
      "timestamp": "2024-05-28T14:45:00.786000Z"
    },
    {
      "empty_slots": 19,
      "extra": {
        "ebikes": 1,
        "has_ebikes": true,
        "normal_bikes": 0,
        "online": true,
        "uid": 215
      },
      "free_bikes": 1,
      "id": "a38652efcd560833b66a90c618ec85c7",
      "latitude": 41.3939378,
      "longitude": 2.1380304,
      "name": "C/ GANDUXER, 29",
      "timestamp": "2024-05-28T14:45:00.485000Z"
    },
    {
      "empty_slots": 24,
      "extra": {
        "ebikes": 3,
        "has_ebikes": true,
        "normal_bikes": 0,
        "online": true,
        "uid": 434
      },
      "free_bikes": 3,
      "id": "4ee62fada6250687374151b4aeb039fa",
      "latitude": 41.3767538,
      "longitude": 2.1269152,
      "name": "C/ ROGER, 24",
      "timestamp": "2024-05-28T14:45:00.102000Z"
    },
    {
      "empty_slots": 23,
      "extra": {
        "ebikes": 3,
        "has_ebikes": true,
        "normal_bikes": 0,
        "online": true,
        "uid": 266
      },
      "free_bikes": 3,
      "id": "30f4d4066d38a451a77cea1f758db2ad",
      "latitude": 41.4268952,
      "longitude": 2.1842572,
      "name": "C/ CONCEPCIÓ ARENAL, 176",
      "timestamp": "2024-05-28T14:45:00.393000Z"
    },
    {
      "empty_slots": 7,
      "extra": {
        "ebikes": 1,
        "has_ebikes": true,
        "normal_bikes": 17,
        "online": true,
        "uid": 7
      },
      "free_bikes": 18,
      "id": "cbd7a9e3c74db2af2926d83c711e13e7",
      "latitude": 41.388885,
      "longitude": 2.18329,
      "name": "PG. PUJADES,  1 (JUTJATS)",
      "timestamp": "2024-05-28T14:45:00.874000Z"
    },
    {
      "empty_slots": 5,
      "extra": {
        "ebikes": 2,
        "has_ebikes": true,
        "normal_bikes": 19,
        "online": true,
        "uid": 118
      },
      "free_bikes": 21,
      "id": "da82ae0907f36bbbba96d9c81baeffe4",
      "latitude": 41.39212,
      "longitude": 2.1874966,
      "name": "C/ PUJADES,  3",
      "timestamp": "2024-05-28T14:45:00.761000Z"
    },
    {
      "empty_slots": 3,
      "extra": {
        "ebikes": 15,
        "has_ebikes": true,
        "normal_bikes": 21,
        "online": true,
        "uid": 408
      },
      "free_bikes": 36,
      "id": "ba4020a51a4b1ad5d38c730af551134d",
      "latitude": 41.3889972,
      "longitude": 2.1923283,
      "name": "C/ RAMON TRIAS FARGAS, 23",
      "timestamp": "2024-05-28T14:45:00.163000Z"
    },
    {
      "empty_slots": 20,
      "extra": {
        "ebikes": 11,
        "has_ebikes": true,
        "normal_bikes": 1,
        "online": true,
        "uid": 396
      },
      "free_bikes": 12,
      "id": "c1cdae8945633fe90d21ec0081cea328",
      "latitude": 41.3890253,
      "longitude": 2.1968267,
      "name": "C/ JOAN MIRÓ, 2-12",
      "timestamp": "2024-05-28T14:45:00.180000Z"
    },
    {
      "empty_slots": 36,
      "extra": {
        "ebikes": 1,
        "has_ebikes": true,
        "normal_bikes": 3,
        "online": true,
        "uid": 85
      },
      "free_bikes": 4,
      "id": "03f8133a557d1706e2bdaa59db24514c",
      "latitude": 41.3751852,
      "longitude": 2.1592394,
      "name": "AV. PARAL·LEL, 146 BIS",
      "timestamp": "2024-05-28T14:45:00.800000Z"
    },
    {
      "empty_slots": 2,
      "extra": {
        "ebikes": 1,
        "has_ebikes": true,
        "normal_bikes": 14,
        "online": true,
        "uid": 31
      },
      "free_bikes": 15,
      "id": "a1bbf788354fc35aabae59730f4aaf01",
      "latitude": 41.3748001,
      "longitude": 2.1889045,
      "name": "PL. DEL MAR",
      "timestamp": "2024-05-28T14:45:00.846000Z"
    },
    {
      "empty_slots": 25,
      "extra": {
        "ebikes": 2,
        "has_ebikes": true,
        "normal_bikes": 2,
        "online": true,
        "uid": 373
      },
      "free_bikes": 4,
      "id": "1f1b5a28741276e122f2ff81c30096ab",
      "latitude": 41.3750995,
      "longitude": 2.1613897,
      "name": "AV. PARAL.LEL, 132",
      "timestamp": "2024-05-28T14:45:00.209000Z"
    },
    {
      "empty_slots": 26,
      "extra": {
        "ebikes": 0,
        "has_ebikes": true,
        "normal_bikes": 0,
        "online": true,
        "uid": 236
      },
      "free_bikes": 0,
      "id": "e964297fbcd2fc96bb6632e5a530d0df",
      "latitude": 41.3751161,
      "longitude": 2.1523091,
      "name": "AV. PARAL.LEL, 194",
      "timestamp": "2024-05-28T14:45:00.447000Z"
    },
    {
      "empty_slots": 24,
      "extra": {
        "ebikes": 0,
        "has_ebikes": true,
        "normal_bikes": 0,
        "online": true,
        "uid": 305
      },
      "free_bikes": 0,
      "id": "094eb7b65cdf38f3f7abd6fe76833690",
      "latitude": 41.3875297,
      "longitude": 2.1237141,
      "name": "AV. DIAGONAL, 680",
      "timestamp": "2024-05-28T14:45:00.315000Z"
    },
    {
      "empty_slots": 11,
      "extra": {
        "ebikes": 8,
        "has_ebikes": true,
        "normal_bikes": 6,
        "online": true,
        "uid": 339
      },
      "free_bikes": 14,
      "id": "ffbaa273abd20a25367fc85ccfd7330c",
      "latitude": 41.4017084,
      "longitude": 2.2053803,
      "name": "C/ RAMON TURRÓ, 246",
      "timestamp": "2024-05-28T14:45:00.252000Z"
    },
    {
      "empty_slots": 18,
      "extra": {
        "ebikes": 8,
        "has_ebikes": true,
        "normal_bikes": 0,
        "online": true,
        "uid": 284
      },
      "free_bikes": 8,
      "id": "603359f89c4bd2f9e534261e8f834f48",
      "latitude": 41.389462,
      "longitude": 2.1314948,
      "name": "AV. DIAGONAL, 652",
      "timestamp": "2024-05-28T14:45:00.361000Z"
    },
    {
      "empty_slots": 28,
      "extra": {
        "ebikes": 2,
        "has_ebikes": true,
        "normal_bikes": 0,
        "online": true,
        "uid": 306
      },
      "free_bikes": 2,
      "id": "ef4175249232a71e6f8d55d6ff546253",
      "latitude": 41.3853868,
      "longitude": 2.122893,
      "name": "C/ DOCTOR SALVADOR CARDENAL, 1-5",
      "timestamp": "2024-05-28T14:45:00.314000Z"
    },
    {
      "empty_slots": 17,
      "extra": {
        "ebikes": 1,
        "has_ebikes": true,
        "normal_bikes": 1,
        "online": true,
        "uid": 120
      },
      "free_bikes": 2,
      "id": "1a670d1e045dd4d7733d85a8d2af7d9f",
      "latitude": 41.4047056,
      "longitude": 2.1765126,
      "name": "C/ LEPANT,  278",
      "timestamp": "2024-05-28T14:45:00.748000Z"
    },
    {
      "empty_slots": 14,
      "extra": {
        "ebikes": 2,
        "has_ebikes": true,
        "normal_bikes": 0,
        "online": true,
        "uid": 20
      },
      "free_bikes": 2,
      "id": "dc60d6ec5fb65c625c08180f89a280eb",
      "latitude": 41.410314,
      "longitude": 2.1757334,
      "name": "C/ CARTAGENA, 308",
      "timestamp": "2024-05-28T14:45:00.861000Z"
    },
    {
      "empty_slots": 17,
      "extra": {
        "ebikes": 3,
        "has_ebikes": true,
        "normal_bikes": 13,
        "online": true,
        "uid": 252
      },
      "free_bikes": 16,
      "id": "1139f0f7f91f6444cfaec68ec53b8433",
      "latitude": 41.4298991,
      "longitude": 2.1932159,
      "name": "RAMBLA DE L'ONZE DE SETEMBRE, 31",
      "timestamp": "2024-05-28T14:45:00.420000Z"
    },
    {
      "empty_slots": 16,
      "extra": {
        "ebikes": 0,
        "has_ebikes": true,
        "normal_bikes": 11,
        "online": true,
        "uid": 253
      },
      "free_bikes": 11,
      "id": "ad095f2d769ae6eb8ce76db4bde21a0c",
      "latitude": 41.4298614,
      "longitude": 2.1922011,
      "name": "C/ ONZE DE SETEMBRE, 37-39",
      "timestamp": "2024-05-28T14:45:00.411000Z"
    },
    {
      "empty_slots": 19,
      "extra": {
        "ebikes": 4,
        "has_ebikes": true,
        "normal_bikes": 2,
        "online": true,
        "uid": 258
      },
      "free_bikes": 6,
      "id": "f876e524e08686e47351a6fa28d8d75f",
      "latitude": 41.4425034,
      "longitude": 2.1929677,
      "name": "C/ FERNANDO PESSOA, 45",
      "timestamp": "2024-05-28T14:45:00.403000Z"
    },
    {
      "empty_slots": 14,
      "extra": {
        "ebikes": 5,
        "has_ebikes": true,
        "normal_bikes": 5,
        "online": true,
        "uid": 257
      },
      "free_bikes": 10,
      "id": "07bb417c7ade54ee396bb3377c172c20",
      "latitude": 41.433934,
      "longitude": 2.1896502,
      "name": "C/ SANT ADRIÀ, 2-8",
      "timestamp": "2024-05-28T14:45:00.408000Z"
    },
    {
      "empty_slots": 15,
      "extra": {
        "ebikes": 9,
        "has_ebikes": true,
        "normal_bikes": 1,
        "online": true,
        "uid": 254
      },
      "free_bikes": 10,
      "id": "5c10c2dba1c5a8e8d9dcbb251fd8eab7",
      "latitude": 41.4299999,
      "longitude": 2.190246,
      "name": "RAMBLA DE L'ONZE DE SETEMBRE, 69",
      "timestamp": "2024-05-28T14:45:00.411000Z"
    },
    {
      "empty_slots": 17,
      "extra": {
        "ebikes": 5,
        "has_ebikes": true,
        "normal_bikes": 2,
        "online": true,
        "uid": 267
      },
      "free_bikes": 7,
      "id": "f1aaf083aaa04498aad975bc45bdc089",
      "latitude": 41.4433647,
      "longitude": 2.1906302,
      "name": "PG. TORRAS I BAGES, 129",
      "timestamp": "2024-05-28T14:45:00.392000Z"
    },
    {
      "empty_slots": 16,
      "extra": {
        "ebikes": 0,
        "has_ebikes": true,
        "normal_bikes": 11,
        "online": true,
        "uid": 260
      },
      "free_bikes": 11,
      "id": "97aa364f0eee0d6a736b47c987418b9b",
      "latitude": 41.4356895,
      "longitude": 2.1920873,
      "name": "CARRER DEL CINCA, 7",
      "timestamp": "2024-05-28T14:45:00.402000Z"
    },
    {
      "empty_slots": 8,
      "extra": {
        "ebikes": 3,
        "has_ebikes": true,
        "normal_bikes": 16,
        "online": true,
        "uid": 268
      },
      "free_bikes": 19,
      "id": "89d251d517c3cf0c0435af9d4daa1058",
      "latitude": 41.4457195,
      "longitude": 2.1929816,
      "name": "C/ FERNANDO PESSOA, 72",
      "timestamp": "2024-05-28T14:45:00.385000Z"
    },
    {
      "empty_slots": 1,
      "extra": {
        "ebikes": 8,
        "has_ebikes": true,
        "normal_bikes": 10,
        "online": true,
        "uid": 55
      },
      "free_bikes": 18,
      "id": "aab7e9b887f07b92be24c7c6bfdcf6fc",
      "latitude": 41.3811923,
      "longitude": 2.1735007,
      "name": "LA RAMBLA, 80",
      "timestamp": "2024-05-28T14:45:00.826000Z"
    },
    {
      "empty_slots": 16,
      "extra": {
        "ebikes": 0,
        "has_ebikes": true,
        "normal_bikes": 4,
        "online": true,
        "uid": 378
      },
      "free_bikes": 4,
      "id": "1f7b68ead83cf6ccc418c0cf0762ff90",
      "latitude": 41.3785379,
      "longitude": 2.1767427,
      "name": "PL. JOAQUIM XIRAU I PALAU, 1",
      "timestamp": "2024-05-28T14:45:00.203000Z"
    },
    {
      "empty_slots": 9,
      "extra": {
        "ebikes": 8,
        "has_ebikes": true,
        "normal_bikes": 8,
        "online": true,
        "uid": 359
      },
      "free_bikes": 16,
      "id": "9c2e3e53b02eb550cda4f0dd07d10828",
      "latitude": 41.3900544,
      "longitude": 2.1775594,
      "name": "C/ MÉNDEZ NÚÑEZ, 16",
      "timestamp": "2024-05-28T14:45:00.227000Z"
    },
    {
      "empty_slots": 6,
      "extra": {
        "ebikes": 4,
        "has_ebikes": true,
        "normal_bikes": 13,
        "online": true,
        "uid": 37
      },
      "free_bikes": 17,
      "id": "322b68b58c0cae1ff17acb1464eb2337",
      "latitude": 41.380624,
      "longitude": 2.1820675,
      "name": "PG. DE COLOM - VIA LAIETANA",
      "timestamp": "2024-05-28T14:45:00.841000Z"
    },
    {
      "empty_slots": 4,
      "extra": {
        "ebikes": 3,
        "has_ebikes": true,
        "normal_bikes": 10,
        "online": true,
        "uid": 40
      },
      "free_bikes": 13,
      "id": "dc04b4e3cdc44b9f8138c24836c54d4f",
      "latitude": 41.382335,
      "longitude": 2.187093,
      "name": "C/ DOCTOR AIGUADER, 2",
      "timestamp": "2024-05-28T14:45:00.839000Z"
    },
    {
      "empty_slots": 8,
      "extra": {
        "ebikes": 2,
        "has_ebikes": true,
        "normal_bikes": 10,
        "online": true,
        "uid": 34
      },
      "free_bikes": 12,
      "id": "cca384f10ed51ada861035bb4b17e71f",
      "latitude": 41.3871079,
      "longitude": 2.1753364,
      "name": "C/ SANT PERE MÉS ALT, 4",
      "timestamp": "2024-05-28T14:45:00.843000Z"
    },
    {
      "empty_slots": 5,
      "extra": {
        "ebikes": 2,
        "has_ebikes": true,
        "normal_bikes": 12,
        "online": true,
        "uid": 392
      },
      "free_bikes": 14,
      "id": "4f57882bd9e80a8ba121bad1315b9d25",
      "latitude": 41.3905303,
      "longitude": 2.1906339,
      "name": "C/ RAMON TURRÓ, 4",
      "timestamp": "2024-05-28T14:45:00.183000Z"
    },
    {
      "empty_slots": 19,
      "extra": {
        "ebikes": 0,
        "has_ebikes": true,
        "normal_bikes": 0,
        "online": true,
        "uid": 187
      },
      "free_bikes": 0,
      "id": "a0dfe4536c9e3cfdf5191d05ba4cc286",
      "latitude": 41.3768806,
      "longitude": 2.1698206,
      "name": "C/ DE SANT PAU, 89 - 97",
      "timestamp": "2024-05-28T14:45:00.523000Z"
    },
    {
      "empty_slots": 10,
      "extra": {
        "ebikes": 10,
        "has_ebikes": true,
        "normal_bikes": 5,
        "online": true,
        "uid": 355
      },
      "free_bikes": 15,
      "id": "bb7a5c1d82f51c2132e19e0156f635dd",
      "latitude": 41.371459,
      "longitude": 2.127854,
      "name": "C/ RIERA BLANCA, 123",
      "timestamp": "2024-05-28T14:45:00.234000Z"
    },
    {
      "empty_slots": 37,
      "extra": {
        "ebikes": 0,
        "has_ebikes": true,
        "normal_bikes": 2,
        "online": true,
        "uid": 5
      },
      "free_bikes": 2,
      "id": "d8e00fe3427e7d26ff26b6b56fc29df3",
      "latitude": 41.3911035,
      "longitude": 2.1801763,
      "name": "PG. LLUIS COMPANYS, 11 (ARC TRIOMF)",
      "timestamp": "2024-05-28T14:45:00.880000Z"
    },
    {
      "empty_slots": 3,
      "extra": {
        "ebikes": 2,
        "has_ebikes": true,
        "normal_bikes": 22,
        "online": true,
        "uid": 389
      },
      "free_bikes": 24,
      "id": "d7a6697f01078b20f3c06402826e491f",
      "latitude": 41.3873901,
      "longitude": 2.1875446,
      "name": "RECINTE PARC DE LA CIUTADELLA",
      "timestamp": "2024-05-28T14:45:00.193000Z"
    },
    {
      "empty_slots": 18,
      "extra": {
        "ebikes": 4,
        "has_ebikes": true,
        "normal_bikes": 10,
        "online": true,
        "uid": 426
      },
      "free_bikes": 14,
      "id": "5dd9cb2366f74b3f39ced69bc1b27e63",
      "latitude": 41.39828,
      "longitude": 2.1830315,
      "name": "C/ DE RIBES, 59 B",
      "timestamp": "2024-05-28T14:45:00.125000Z"
    },
    {
      "empty_slots": 23,
      "extra": {
        "ebikes": 1,
        "has_ebikes": true,
        "normal_bikes": 2,
        "online": true,
        "uid": 372
      },
      "free_bikes": 3,
      "id": "8b869bec6b09fe353385927f2e6d9836",
      "latitude": 41.4001015,
      "longitude": 2.1841711,
      "name": "C/ RIBES, 77",
      "timestamp": "2024-05-28T14:45:00.210000Z"
    },
    {
      "empty_slots": 20,
      "extra": {
        "ebikes": 4,
        "has_ebikes": true,
        "normal_bikes": 1,
        "online": true,
        "uid": 369
      },
      "free_bikes": 5,
      "id": "d4a4e50c2de87880e9a073243eb63701",
      "latitude": 41.40013,
      "longitude": 2.1780175,
      "name": "C/ CONSELL DE CENT, 482",
      "timestamp": "2024-05-28T14:45:00.214000Z"
    },
    {
      "empty_slots": 17,
      "extra": {
        "ebikes": 1,
        "has_ebikes": true,
        "normal_bikes": 1,
        "online": true,
        "uid": 71
      },
      "free_bikes": 2,
      "id": "6664971e93f901e063d983180e293d3d",
      "latitude": 41.3819459,
      "longitude": 2.1629146,
      "name": "C/ FLORIDABLANCA, 145",
      "timestamp": "2024-05-28T14:45:00.812000Z"
    },
    {
      "empty_slots": 29,
      "extra": {
        "ebikes": 1,
        "has_ebikes": true,
        "normal_bikes": 1,
        "online": true,
        "uid": 387
      },
      "free_bikes": 2,
      "id": "0f4ff722a51882a7792b8e3802178dc0",
      "latitude": 41.3957813,
      "longitude": 2.1787074,
      "name": "C/ NÀPOLS, 125",
      "timestamp": "2024-05-28T14:45:00.194000Z"
    },
    {
      "empty_slots": 16,
      "extra": {
        "ebikes": 2,
        "has_ebikes": true,
        "normal_bikes": 0,
        "online": true,
        "uid": 88
      },
      "free_bikes": 2,
      "id": "4f6b0a073b67a22434cab65e4fedf4ad",
      "latitude": 41.3936144,
      "longitude": 2.1507739,
      "name": "C/ LONDRES, 101-103",
      "timestamp": "2024-05-28T14:45:00.797000Z"
    },
    {
      "empty_slots": 4,
      "extra": {
        "ebikes": 1,
        "has_ebikes": true,
        "normal_bikes": 19,
        "online": true,
        "uid": 425
      },
      "free_bikes": 20,
      "id": "fda312f7d7ab1b99dddb04d926b64f80",
      "latitude": 41.3765618,
      "longitude": 2.1748621,
      "name": "C/ DE CERVELLÓ, 5",
      "timestamp": "2024-05-28T14:45:00.126000Z"
    },
    {
      "empty_slots": 20,
      "extra": {
        "ebikes": 0,
        "has_ebikes": true,
        "normal_bikes": 6,
        "online": true,
        "uid": 416
      },
      "free_bikes": 6,
      "id": "f5857b295e06b4662db61d3d7fec7a78",
      "latitude": 41.3781065,
      "longitude": 2.1696744,
      "name": "RAMBLA DEL RAVAL, 20",
      "timestamp": "2024-05-28T14:45:00.147000Z"
    },
    {
      "empty_slots": 17,
      "extra": {
        "ebikes": 1,
        "has_ebikes": true,
        "normal_bikes": 2,
        "online": true,
        "uid": 110
      },
      "free_bikes": 3,
      "id": "4bdc1a278f6ce0475588aca3e87ed6ae",
      "latitude": 41.3852585,
      "longitude": 2.155089,
      "name": "AV. ROMA,  136",
      "timestamp": "2024-05-28T14:45:00.771000Z"
    },
    {
      "empty_slots": 19,
      "extra": {
        "ebikes": 4,
        "has_ebikes": true,
        "normal_bikes": 1,
        "online": true,
        "uid": 102
      },
      "free_bikes": 5,
      "id": "96f5f6ef281da60b166a50fc03189e7d",
      "latitude": 41.392567,
      "longitude": 2.1422174,
      "name": "AV. DIAGONAL,  612",
      "timestamp": "2024-05-28T14:45:00.785000Z"
    },
    {
      "empty_slots": 14,
      "extra": {
        "ebikes": 8,
        "has_ebikes": true,
        "normal_bikes": 3,
        "online": true,
        "uid": 87
      },
      "free_bikes": 11,
      "id": "d91cce5b9b84bd9bbec5fd4330c46d51",
      "latitude": 41.38322238887374,
      "longitude": 2.1479931916296557,
      "name": "C/ ROCAFORT, 187",
      "timestamp": "2024-05-28T14:45:00.798000Z"
    },
    {
      "empty_slots": 11,
      "extra": {
        "ebikes": 3,
        "has_ebikes": true,
        "normal_bikes": 5,
        "online": true,
        "uid": 111
      },
      "free_bikes": 8,
      "id": "58abd7401d2bb160e3666d167cb3ad1b",
      "latitude": 41.3847528,
      "longitude": 2.1546746,
      "name": "C/ ARAGÓN 147",
      "timestamp": "2024-05-28T14:45:00.770000Z"
    },
    {
      "empty_slots": 28,
      "extra": {
        "ebikes": 0,
        "has_ebikes": true,
        "normal_bikes": 0,
        "online": true,
        "uid": 360
      },
      "free_bikes": 0,
      "id": "202292284aa3e54a835a7d23b46736de",
      "latitude": 41.3952527,
      "longitude": 2.1730023,
      "name": "C/ BAILÉN, 62",
      "timestamp": "2024-05-28T14:45:00.226000Z"
    },
    {
      "empty_slots": 9,
      "extra": {
        "ebikes": 8,
        "has_ebikes": true,
        "normal_bikes": 7,
        "online": true,
        "uid": 363
      },
      "free_bikes": 15,
      "id": "5e5d2776870d78c58607c84eb4db80d6",
      "latitude": 41.3908381,
      "longitude": 2.1743743,
      "name": "C/ BRUC, 20",
      "timestamp": "2024-05-28T14:45:00.223000Z"
    },
    {
      "empty_slots": 17,
      "extra": {
        "ebikes": 5,
        "has_ebikes": true,
        "normal_bikes": 1,
        "online": true,
        "uid": 265
      },
      "free_bikes": 6,
      "id": "20b1df9310878ec699cf30978127aef4",
      "latitude": 41.3847738,
      "longitude": 2.1592566,
      "name": "C/ CASANOVA, 55",
      "timestamp": "2024-05-28T14:45:00.394000Z"
    },
    {
      "empty_slots": 16,
      "extra": {
        "ebikes": 13,
        "has_ebikes": true,
        "normal_bikes": 0,
        "online": true,
        "uid": 365
      },
      "free_bikes": 13,
      "id": "0f0b15d3a81bb3204cc64850518884e6",
      "latitude": 41.3875712,
      "longitude": 2.1469336,
      "name": "C/ VILADOMAT, 244",
      "timestamp": "2024-05-28T14:45:00.222000Z"
    },
    {
      "empty_slots": 19,
      "extra": {
        "ebikes": 4,
        "has_ebikes": true,
        "normal_bikes": 1,
        "online": true,
        "uid": 70
      },
      "free_bikes": 5,
      "id": "f131c8be74d689e7349af47724d88348",
      "latitude": 41.380393,
      "longitude": 2.1606506,
      "name": "C/ COMTE URGELL, 23",
      "timestamp": "2024-05-28T14:45:00.813000Z"
    },
    {
      "empty_slots": 23,
      "extra": {
        "ebikes": 2,
        "has_ebikes": true,
        "normal_bikes": 1,
        "online": true,
        "uid": 405
      },
      "free_bikes": 3,
      "id": "ffa7f0802de02896fedf531adb54aff0",
      "latitude": 41.3854003,
      "longitude": 2.1521802,
      "name": "C/ COMTE BORRELL, 198",
      "timestamp": "2024-05-28T14:45:00.165000Z"
    },
    {
      "empty_slots": 18,
      "extra": {
        "ebikes": 1,
        "has_ebikes": true,
        "normal_bikes": 7,
        "online": true,
        "uid": 384
      },
      "free_bikes": 8,
      "id": "d1bbabe6337fcbd7604c6237e9122cf2",
      "latitude": 41.3807072,
      "longitude": 2.1468381,
      "name": "C/ VILAMARÍ, 85",
      "timestamp": "2024-05-28T14:45:00.197000Z"
    },
    {
      "empty_slots": 16,
      "extra": {
        "ebikes": 3,
        "has_ebikes": true,
        "normal_bikes": 1,
        "online": true,
        "uid": 75
      },
      "free_bikes": 4,
      "id": "129546d3550305e9a5d2f725866b1667",
      "latitude": 41.385004,
      "longitude": 2.1429115,
      "name": "AV. JOSEP TARRADELLAS, 58",
      "timestamp": "2024-05-28T14:45:00.809000Z"
    },
    {
      "empty_slots": 3,
      "extra": {
        "ebikes": 7,
        "has_ebikes": true,
        "normal_bikes": 10,
        "online": true,
        "uid": 41
      },
      "free_bikes": 17,
      "id": "f8756b6af18c2fedd8a295040279aecc",
      "latitude": 41.379326,
      "longitude": 2.189906,
      "name": "PL. POETA BOSCÀ | C/ ATLÀNTIDA",
      "timestamp": "2024-05-28T14:45:00.838000Z"
    },
    {
      "empty_slots": 16,
      "extra": {
        "ebikes": 2,
        "has_ebikes": true,
        "normal_bikes": 0,
        "online": true,
        "uid": 27
      },
      "free_bikes": 2,
      "id": "efec17f63cd2b413fca24ecb8513af38",
      "latitude": 41.3967524,
      "longitude": 2.1646338,
      "name": "C/ PROVENÇA, 322",
      "timestamp": "2024-05-28T14:45:00.849000Z"
    },
    {
      "empty_slots": 7,
      "extra": {
        "ebikes": 16,
        "has_ebikes": true,
        "normal_bikes": 1,
        "online": true,
        "uid": 444
      },
      "free_bikes": 17,
      "id": "7d5ed93b63811f1aacd75f5ecb137eae",
      "latitude": 41.3717304,
      "longitude": 2.1554047,
      "name": "C/ LLEIDA, 40",
      "timestamp": "2024-05-28T14:45:00.073000Z"
    },
    {
      "empty_slots": 10,
      "extra": {
        "ebikes": 4,
        "has_ebikes": true,
        "normal_bikes": 5,
        "online": true,
        "uid": 436
      },
      "free_bikes": 9,
      "id": "4adedd174616ff28ded24a9ad859660f",
      "latitude": 41.3545425,
      "longitude": 2.1433038,
      "name": "PG. ZONA FRANCA, 54",
      "timestamp": "2024-05-28T14:45:00.098000Z"
    },
    {
      "empty_slots": 12,
      "extra": {
        "ebikes": 10,
        "has_ebikes": true,
        "normal_bikes": 10,
        "online": true,
        "uid": 347
      },
      "free_bikes": 20,
      "id": "8fd6db8cb80654809347bed85879b49b",
      "latitude": 41.3595484,
      "longitude": 2.1417765,
      "name": "C/ ALTS FORNS, 77",
      "timestamp": "2024-05-28T14:45:00.245000Z"
    },
    {
      "empty_slots": 40,
      "extra": {
        "ebikes": 1,
        "has_ebikes": true,
        "normal_bikes": 4,
        "online": true,
        "uid": 1
      },
      "free_bikes": 5,
      "id": "1c3b749efc8354ce2fe1ca81e9b7a388",
      "latitude": 41.3979779,
      "longitude": 2.1801069,
      "name": "GRAN VIA CORTS CATALANES, 760",
      "timestamp": "2024-05-28T14:45:00.885000Z"
    },
    {
      "empty_slots": 15,
      "extra": {
        "ebikes": 1,
        "has_ebikes": true,
        "normal_bikes": 4,
        "online": true,
        "uid": 495
      },
      "free_bikes": 5,
      "id": "55ffdfb26f20df2d6ecefaec7f63843a",
      "latitude": 41.377846,
      "longitude": 2.150523,
      "name": "C/ DIPUTACIÓ, 22",
      "timestamp": "2024-05-28T14:44:59.977000Z"
    },
    {
      "empty_slots": 22,
      "extra": {
        "ebikes": 2,
        "has_ebikes": true,
        "normal_bikes": 6,
        "online": true,
        "uid": 183
      },
      "free_bikes": 8,
      "id": "af8ed8f730d69306e8971ff13d1080ce",
      "latitude": 41.3723682,
      "longitude": 2.1419494,
      "name": "C/ GAVÀ, 1",
      "timestamp": "2024-05-28T14:45:00.534000Z"
    },
    {
      "empty_slots": 29,
      "extra": {
        "ebikes": 2,
        "has_ebikes": true,
        "normal_bikes": 0,
        "online": true,
        "uid": 210
      },
      "free_bikes": 2,
      "id": "f47b91ad3e2f9e22babba8f999c32b8c",
      "latitude": 41.3745238,
      "longitude": 2.1422556,
      "name": "C/ VILARDELL, 18",
      "timestamp": "2024-05-28T14:45:00.495000Z"
    },
    {
      "empty_slots": 8,
      "extra": {
        "ebikes": 1,
        "has_ebikes": true,
        "normal_bikes": 8,
        "online": true,
        "uid": 439
      },
      "free_bikes": 9,
      "id": "7231524b4cb51d780d762ce7c5440ca2",
      "latitude": 41.3685394,
      "longitude": 2.1328403,
      "name": "RBLA. BADAL, 73 | C/ CONSTITUCIÓ",
      "timestamp": "2024-05-28T14:45:00.086000Z"
    },
    {
      "empty_slots": 19,
      "extra": {
        "ebikes": 0,
        "has_ebikes": true,
        "normal_bikes": 0,
        "online": true,
        "uid": 97
      },
      "free_bikes": 0,
      "id": "126463a86cb5fe5421dd27fed9c2c6bc",
      "latitude": 41.3779613,
      "longitude": 2.1450491,
      "name": "C/ TARRAGONA, 141",
      "timestamp": "2024-05-28T14:45:00.790000Z"
    },
    {
      "empty_slots": 12,
      "extra": {
        "ebikes": 5,
        "has_ebikes": true,
        "normal_bikes": 1,
        "online": true,
        "uid": 121
      },
      "free_bikes": 6,
      "id": "ca75bf1278bcc8c569ebe033092a4627",
      "latitude": 41.4064529,
      "longitude": 2.1785364,
      "name": "C/ CASTILLEJOS, 258",
      "timestamp": "2024-05-28T14:45:00.744000Z"
    },
    {
      "empty_slots": 16,
      "extra": {
        "ebikes": 0,
        "has_ebikes": true,
        "normal_bikes": 11,
        "online": true,
        "uid": 352
      },
      "free_bikes": 11,
      "id": "8f6b673cb8b0b202a6562c9e43efd166",
      "latitude": 41.363279,
      "longitude": 2.1341586,
      "name": "C/RADI,10/GRAN VIA DE LES CORTS CATALANES",
      "timestamp": "2024-05-28T14:45:00.236000Z"
    },
    {
      "empty_slots": 7,
      "extra": {
        "ebikes": 4,
        "has_ebikes": true,
        "normal_bikes": 21,
        "online": true,
        "uid": 406
      },
      "free_bikes": 25,
      "id": "9c3778f6373e6a82078f3609beeb4479",
      "latitude": 41.3863747,
      "longitude": 2.1646697,
      "name": "GRAN VIA DE LES CORTS CATALANES, 592",
      "timestamp": "2024-05-28T14:45:00.164000Z"
    },
    {
      "empty_slots": 1,
      "extra": {
        "ebikes": 4,
        "has_ebikes": true,
        "normal_bikes": 21,
        "online": true,
        "uid": 424
      },
      "free_bikes": 25,
      "id": "73006d172c99dc41ac2bfc7782bec7b7",
      "latitude": 41.3795862,
      "longitude": 2.1925198,
      "name": "PG. MARÍTIM DE LA BARCELONETA",
      "timestamp": "2024-05-28T14:45:00.127000Z"
    },
    {
      "empty_slots": 6,
      "extra": {
        "ebikes": 4,
        "has_ebikes": true,
        "normal_bikes": 17,
        "online": true,
        "uid": 145
      },
      "free_bikes": 21,
      "id": "eb03f3afac0686805e05b09ec1ed32c7",
      "latitude": 41.4093405,
      "longitude": 2.2024461,
      "name": "C/ PERE IV,  301 / FLUVIÀ",
      "timestamp": "2024-05-28T14:45:00.583000Z"
    },
    {
      "empty_slots": 19,
      "extra": {
        "ebikes": 8,
        "has_ebikes": true,
        "normal_bikes": 0,
        "online": true,
        "uid": 196
      },
      "free_bikes": 8,
      "id": "24749fc9c12ae80014048d948ebcdcd6",
      "latitude": 41.3832609,
      "longitude": 2.1392662,
      "name": "C/ BERLÍN, 38",
      "timestamp": "2024-05-28T14:45:00.515000Z"
    },
    {
      "empty_slots": 17,
      "extra": {
        "ebikes": 5,
        "has_ebikes": true,
        "normal_bikes": 1,
        "online": true,
        "uid": 200
      },
      "free_bikes": 6,
      "id": "cf27f9447a9429924729959bc6171a49",
      "latitude": 41.3839045,
      "longitude": 2.1312876,
      "name": "C/ JOAN GÜELL, 174",
      "timestamp": "2024-05-28T14:45:00.504000Z"
    },
    {
      "empty_slots": 19,
      "extra": {
        "ebikes": 3,
        "has_ebikes": true,
        "normal_bikes": 1,
        "online": true,
        "uid": 194
      },
      "free_bikes": 4,
      "id": "3d0eb79ed109cc00dfd80dc5ed800cf5",
      "latitude": 41.3812001,
      "longitude": 2.1323612,
      "name": "C/ JOAN GÜELL, 98",
      "timestamp": "2024-05-28T14:45:00.516000Z"
    },
    {
      "empty_slots": 5,
      "extra": {
        "ebikes": 7,
        "has_ebikes": true,
        "normal_bikes": 0,
        "online": true,
        "uid": 74
      },
      "free_bikes": 7,
      "id": "4b706ced6b46617641ab8a7c2f09bc5f",
      "latitude": 41.3900085,
      "longitude": 2.1432105,
      "name": "AV. JOSEP TARRADELLAS, 133",
      "timestamp": "2024-05-28T14:45:00.810000Z"
    },
    {
      "empty_slots": 29,
      "extra": {
        "ebikes": 2,
        "has_ebikes": true,
        "normal_bikes": 0,
        "online": true,
        "uid": 367
      },
      "free_bikes": 2,
      "id": "9ee110ea13f89c4d80d6b4e3d51dd546",
      "latitude": 41.384972,
      "longitude": 2.1376205,
      "name": "C/ MARQUÈS DE SENTMENAT, 46",
      "timestamp": "2024-05-28T14:45:00.220000Z"
    },
    {
      "empty_slots": 22,
      "extra": {
        "ebikes": 5,
        "has_ebikes": true,
        "normal_bikes": 4,
        "online": true,
        "uid": 205
      },
      "free_bikes": 9,
      "id": "e6b3c0f474c7cf94ac64da99a24097e9",
      "latitude": 41.387561,
      "longitude": 2.1306737,
      "name": "C/ EUROPA, 25",
      "timestamp": "2024-05-28T14:45:00.499000Z"
    },
    {
      "empty_slots": 12,
      "extra": {
        "ebikes": 2,
        "has_ebikes": true,
        "normal_bikes": 7,
        "online": true,
        "uid": 235
      },
      "free_bikes": 9,
      "id": "2131f17cce068654ea6dd796f6775cc9",
      "latitude": 41.3751767,
      "longitude": 2.1658972,
      "name": "AV. PARAL.LEL, 98",
      "timestamp": "2024-05-28T14:45:00.448000Z"
    },
    {
      "empty_slots": 28,
      "extra": {
        "ebikes": 1,
        "has_ebikes": true,
        "normal_bikes": 0,
        "online": true,
        "uid": 385
      },
      "free_bikes": 1,
      "id": "3c096aee00bf5fd600b60936a0fe3e52",
      "latitude": 41.387888,
      "longitude": 2.1552902,
      "name": "C/ CASANOVA, 119",
      "timestamp": "2024-05-28T14:45:00.196000Z"
    },
    {
      "empty_slots": 21,
      "extra": {
        "ebikes": 9,
        "has_ebikes": true,
        "normal_bikes": 1,
        "online": true,
        "uid": 302
      },
      "free_bikes": 10,
      "id": "f3c74e7e0f1a8c1445c57b669bf82b0c",
      "latitude": 41.3906352,
      "longitude": 2.111541,
      "name": "C/ CAVALLERS, 41",
      "timestamp": "2024-05-28T14:45:00.322000Z"
    },
    {
      "empty_slots": 25,
      "extra": {
        "ebikes": 1,
        "has_ebikes": true,
        "normal_bikes": 0,
        "online": true,
        "uid": 303
      },
      "free_bikes": 1,
      "id": "670661fba74c24adc1778757b3388588",
      "latitude": 41.3934324,
      "longitude": 2.115107,
      "name": "C/ CAVALLERS, 67",
      "timestamp": "2024-05-28T14:45:00.321000Z"
    },
    {
      "empty_slots": 17,
      "extra": {
        "ebikes": 3,
        "has_ebikes": true,
        "normal_bikes": 4,
        "online": true,
        "uid": 311
      },
      "free_bikes": 7,
      "id": "f10f219e4f969e8b6940ec1ee720205e",
      "latitude": 41.3785631,
      "longitude": 2.1202487,
      "name": "C/ GALLEGO, 2",
      "timestamp": "2024-05-28T14:45:00.305000Z"
    },
    {
      "empty_slots": 32,
      "extra": {
        "ebikes": 1,
        "has_ebikes": true,
        "normal_bikes": 3,
        "online": true,
        "uid": 312
      },
      "free_bikes": 4,
      "id": "ddd1cf82f9fbc6f46089b086af6e110b",
      "latitude": 41.3789061,
      "longitude": 2.1233038,
      "name": "C/ ARIZALA, 77",
      "timestamp": "2024-05-28T14:45:00.304000Z"
    },
    {
      "empty_slots": 18,
      "extra": {
        "ebikes": 22,
        "has_ebikes": true,
        "normal_bikes": 2,
        "online": true,
        "uid": 433
      },
      "free_bikes": 24,
      "id": "0ae0e4f1bb5a5d21b268bec539413fde",
      "latitude": 41.3862258,
      "longitude": 2.1168609,
      "name": "C/ JOHN MAYNARD KEYNES, 2 | AV. DGNAL.",
      "timestamp": "2024-05-28T14:45:00.105000Z"
    },
    {
      "empty_slots": 24,
      "extra": {
        "ebikes": 3,
        "has_ebikes": true,
        "normal_bikes": 0,
        "online": true,
        "uid": 335
      },
      "free_bikes": 3,
      "id": "30f67feaf5a06496a48c4faf1fe559df",
      "latitude": 41.3935355,
      "longitude": 2.1231228,
      "name": "C/ SANTA AMÈLIA, 2",
      "timestamp": "2024-05-28T14:45:00.263000Z"
    },
    {
      "empty_slots": 19,
      "extra": {
        "ebikes": 4,
        "has_ebikes": true,
        "normal_bikes": 0,
        "online": true,
        "uid": 337
      },
      "free_bikes": 4,
      "id": "8ca64c5a6a216cb4628c6f4e7aff13bd",
      "latitude": 41.3986238,
      "longitude": 2.1204941,
      "name": "C/ CARME KARR, 12-14",
      "timestamp": "2024-05-28T14:45:00.261000Z"
    },
    {
      "empty_slots": 24,
      "extra": {
        "ebikes": 3,
        "has_ebikes": true,
        "normal_bikes": 0,
        "online": true,
        "uid": 420
      },
      "free_bikes": 3,
      "id": "c5d5f7bd79f1d304efb37faa60ae1d64",
      "latitude": 41.3743329,
      "longitude": 2.1479385,
      "name": "GRAN VIA DE LES CORTS CATALANES, 368",
      "timestamp": "2024-05-28T14:45:00.141000Z"
    },
    {
      "empty_slots": 19,
      "extra": {
        "ebikes": 6,
        "has_ebikes": true,
        "normal_bikes": 0,
        "online": true,
        "uid": 216
      },
      "free_bikes": 6,
      "id": "d6505fff5b4c2a24385305452780ffa1",
      "latitude": 41.3967824,
      "longitude": 2.1445567,
      "name": "C/ MADRAZO, 131",
      "timestamp": "2024-05-28T14:45:00.484000Z"
    },
    {
      "empty_slots": 23,
      "extra": {
        "ebikes": 1,
        "has_ebikes": true,
        "normal_bikes": 0,
        "online": true,
        "uid": 327
      },
      "free_bikes": 1,
      "id": "e63e0e9835b8a41b14c65052e5ef26da",
      "latitude": 41.4050074,
      "longitude": 2.134603,
      "name": "C/ REUS, 23",
      "timestamp": "2024-05-28T14:45:00.277000Z"
    },
    {
      "empty_slots": 17,
      "extra": {
        "ebikes": 2,
        "has_ebikes": true,
        "normal_bikes": 7,
        "online": true,
        "uid": 328
      },
      "free_bikes": 9,
      "id": "8d86e740799da8e5ffd2ac729a5ca92b",
      "latitude": 41.402988,
      "longitude": 2.1344691,
      "name": "C/ ARTESA DE SEGRE, 2",
      "timestamp": "2024-05-28T14:45:00.276000Z"
    },
    {
      "empty_slots": 19,
      "extra": {
        "ebikes": 8,
        "has_ebikes": true,
        "normal_bikes": 0,
        "online": true,
        "uid": 332
      },
      "free_bikes": 8,
      "id": "ea70d3859cc7f8482e9acbb1d16826a5",
      "latitude": 41.3998981,
      "longitude": 2.1281922,
      "name": "C/ DOCTOR ROUX, 86",
      "timestamp": "2024-05-28T14:45:00.265000Z"
    },
    {
      "empty_slots": 20,
      "extra": {
        "ebikes": 6,
        "has_ebikes": true,
        "normal_bikes": 1,
        "online": true,
        "uid": 336
      },
      "free_bikes": 7,
      "id": "5bfe842be27fb163b61556088fea6184",
      "latitude": 41.3953855,
      "longitude": 2.1210928,
      "name": "C/ CAPONATA, 20",
      "timestamp": "2024-05-28T14:45:00.262000Z"
    },
    {
      "empty_slots": 25,
      "extra": {
        "ebikes": 2,
        "has_ebikes": true,
        "normal_bikes": 0,
        "online": true,
        "uid": 512
      },
      "free_bikes": 2,
      "id": "34419711ca6f3df9e56a17c7f082b514",
      "latitude": 41.4000778,
      "longitude": 2.1326911,
      "name": "C/ D'ALACANT, 12",
      "timestamp": "2024-05-28T14:44:59.934000Z"
    },
    {
      "empty_slots": 6,
      "extra": {
        "ebikes": 2,
        "has_ebikes": true,
        "normal_bikes": 23,
        "online": true,
        "uid": 361
      },
      "free_bikes": 25,
      "id": "938d6e80af6873d5f085786edde6603c",
      "latitude": 41.37652,
      "longitude": 2.17881,
      "name": "PG. DE COLOM (LES RAMBLES)",
      "timestamp": "2024-05-28T14:45:00.225000Z"
    },
    {
      "empty_slots": 23,
      "extra": {
        "ebikes": 3,
        "has_ebikes": true,
        "normal_bikes": 0,
        "online": true,
        "uid": 217
      },
      "free_bikes": 3,
      "id": "fdc17d98e3f99d3d35063a93c887f09d",
      "latitude": 41.3985735,
      "longitude": 2.1440826,
      "name": "C/ RECTOR UBACH, 24",
      "timestamp": "2024-05-28T14:45:00.481000Z"
    },
    {
      "empty_slots": 21,
      "extra": {
        "ebikes": 2,
        "has_ebikes": true,
        "normal_bikes": 1,
        "online": true,
        "uid": 297
      },
      "free_bikes": 3,
      "id": "a0487dd8415803f990a1e0577f53e2b4",
      "latitude": 41.4388223,
      "longitude": 2.1767828,
      "name": "C/ TURÓ BLAU, 1-3",
      "timestamp": "2024-05-28T14:45:00.329000Z"
    },
    {
      "empty_slots": 20,
      "extra": {
        "ebikes": 2,
        "has_ebikes": true,
        "normal_bikes": 5,
        "online": true,
        "uid": 15
      },
      "free_bikes": 7,
      "id": "101580d3395e059b4d12769a5d25d212",
      "latitude": 41.39161170092347,
      "longitude": 2.1689031978751205,
      "name": "C/ DIPUTACIÓ, 272",
      "timestamp": "2024-05-28T14:45:00.865000Z"
    },
    {
      "empty_slots": 26,
      "extra": {
        "ebikes": 1,
        "has_ebikes": true,
        "normal_bikes": 0,
        "online": true,
        "uid": 276
      },
      "free_bikes": 1,
      "id": "508b30de9a0df2655f739a08903c7d45",
      "latitude": 41.4121345,
      "longitude": 2.1652216,
      "name": "PLAÇA ALFONS X EL SAVI / RONDA DEL GUINARDO",
      "timestamp": "2024-05-28T14:45:00.376000Z"
    },
    {
      "empty_slots": 8,
      "extra": {
        "ebikes": 7,
        "has_ebikes": true,
        "normal_bikes": 1,
        "online": true,
        "uid": 26
      },
      "free_bikes": 8,
      "id": "7f6345da889f235b5dcb5f42e48b2be9",
      "latitude": 41.4071692,
      "longitude": 2.1820722,
      "name": "C/ DOS DE MAIG, 230-232",
      "timestamp": "2024-05-28T14:45:00.850000Z"
    },
    {
      "empty_slots": 25,
      "extra": {
        "ebikes": 0,
        "has_ebikes": true,
        "normal_bikes": 0,
        "online": true,
        "uid": 498
      },
      "free_bikes": 0,
      "id": "258702699a30e5e6ef91fc779acf10f7",
      "latitude": 41.4144967,
      "longitude": 2.1402433,
      "name": "C/ ESTEVE TERRADAS, 42",
      "timestamp": "2024-05-28T14:44:59.968000Z"
    },
    {
      "empty_slots": 11,
      "extra": {
        "ebikes": 5,
        "has_ebikes": true,
        "normal_bikes": 0,
        "online": true,
        "uid": 501
      },
      "free_bikes": 5,
      "id": "e8c928bbf201f07a09e6f9afbcab650b",
      "latitude": 41.4052698,
      "longitude": 2.1420204,
      "name": "C/ ELISA, 1",
      "timestamp": "2024-05-28T14:44:59.966000Z"
    },
    {
      "empty_slots": 20,
      "extra": {
        "ebikes": 1,
        "has_ebikes": true,
        "normal_bikes": 5,
        "online": true,
        "uid": 184
      },
      "free_bikes": 6,
      "id": "f3372fefe9287bdfeaec076d7cbc3471",
      "latitude": 41.3675438,
      "longitude": 2.1342316,
      "name": "C/ QUETZAL, 22-24",
      "timestamp": "2024-05-28T14:45:00.533000Z"
    },
    {
      "empty_slots": 25,
      "extra": {
        "ebikes": 1,
        "has_ebikes": true,
        "normal_bikes": 0,
        "online": true,
        "uid": 499
      },
      "free_bikes": 1,
      "id": "e6b1bab15b484861552a0e83f61f0ce0",
      "latitude": 41.4160558,
      "longitude": 2.1421504,
      "name": "AV. VALLCARCA, 196",
      "timestamp": "2024-05-28T14:44:59.967000Z"
    },
    {
      "empty_slots": 12,
      "extra": {
        "ebikes": 0,
        "has_ebikes": true,
        "normal_bikes": 6,
        "online": true,
        "uid": 442
      },
      "free_bikes": 6,
      "id": "13cc3757d548c3d88d2cffe8fd10adac",
      "latitude": 41.3649272,
      "longitude": 2.138599,
      "name": "C/ MINERIA, 30",
      "timestamp": "2024-05-28T14:45:00.080000Z"
    },
    {
      "empty_slots": 25,
      "extra": {
        "ebikes": 2,
        "has_ebikes": true,
        "normal_bikes": 0,
        "online": true,
        "uid": 320
      },
      "free_bikes": 2,
      "id": "d619601c806c7e3476c79145cafcd1da",
      "latitude": 41.400305,
      "longitude": 2.149144,
      "name": "C/ MADRAZO, 39",
      "timestamp": "2024-05-28T14:45:00.287000Z"
    },
    {
      "empty_slots": 2,
      "extra": {
        "ebikes": 15,
        "has_ebikes": true,
        "normal_bikes": 11,
        "online": true,
        "uid": 190
      },
      "free_bikes": 26,
      "id": "c0d5295a77f4cb6e6d6af21c38439874",
      "latitude": 41.3961412,
      "longitude": 2.2078439,
      "name": "AV. LITORAL, 72",
      "timestamp": "2024-05-28T14:45:00.519000Z"
    },
    {
      "empty_slots": 16,
      "extra": {
        "ebikes": 6,
        "has_ebikes": true,
        "normal_bikes": 0,
        "online": true,
        "uid": 322
      },
      "free_bikes": 6,
      "id": "3c743ecf94b93efe624e6495b8634440",
      "latitude": 41.4009,
      "longitude": 2.13892,
      "name": "C/ SANTALÓ, 165",
      "timestamp": "2024-05-28T14:45:00.285000Z"
    },
    {
      "empty_slots": 9,
      "extra": {
        "ebikes": 15,
        "has_ebikes": true,
        "normal_bikes": 2,
        "online": true,
        "uid": 323
      },
      "free_bikes": 17,
      "id": "a7a1407fe9858d2c96db2858a2f92c91",
      "latitude": 41.3981616,
      "longitude": 2.1386719,
      "name": "C/ VALLMAJOR, 13",
      "timestamp": "2024-05-28T14:45:00.285000Z"
    },
    {
      "empty_slots": 19,
      "extra": {
        "ebikes": 1,
        "has_ebikes": true,
        "normal_bikes": 1,
        "online": true,
        "uid": 28
      },
      "free_bikes": 2,
      "id": "04d2405659301888532b220530bf6ab7",
      "latitude": 41.4055143,
      "longitude": 2.1706498,
      "name": "C/ SARDENYA, 362",
      "timestamp": "2024-05-28T14:45:00.848000Z"
    },
    {
      "empty_slots": 3,
      "extra": {
        "ebikes": 9,
        "has_ebikes": true,
        "normal_bikes": 13,
        "online": true,
        "uid": 156
      },
      "free_bikes": 22,
      "id": "b531533edea1cbb1febcacfa1b2de898",
      "latitude": 41.4091355,
      "longitude": 2.2088179,
      "name": "C/ SELVA DE MAR, 46",
      "timestamp": "2024-05-28T14:45:00.573000Z"
    },
    {
      "empty_slots": 13,
      "extra": {
        "ebikes": 14,
        "has_ebikes": true,
        "normal_bikes": 0,
        "online": true,
        "uid": 430
      },
      "free_bikes": 14,
      "id": "fa673f1e3be9fe199c0752d9f92a0fbc",
      "latitude": 41.385641,
      "longitude": 2.113096,
      "name": "C/ ALFAMBRA, 2 | AV. DIAGONAL",
      "timestamp": "2024-05-28T14:45:00.120000Z"
    },
    {
      "empty_slots": 28,
      "extra": {
        "ebikes": 2,
        "has_ebikes": true,
        "normal_bikes": 0,
        "online": true,
        "uid": 208
      },
      "free_bikes": 2,
      "id": "b68161aaef7bae4f079fb4ea4e37291f",
      "latitude": 41.3915195,
      "longitude": 2.1390667,
      "name": "AV. DIAGONAL, 630",
      "timestamp": "2024-05-28T14:45:00.496000Z"
    },
    {
      "empty_slots": 24,
      "extra": {
        "ebikes": 8,
        "has_ebikes": true,
        "normal_bikes": 0,
        "online": true,
        "uid": 318
      },
      "free_bikes": 8,
      "id": "eba432dc58a0ee6fbe4f6323f4be441f",
      "latitude": 41.412427,
      "longitude": 2.170592,
      "name": "C/ CASTILLEJOS, 388",
      "timestamp": "2024-05-28T14:45:00.289000Z"
    },
    {
      "empty_slots": 13,
      "extra": {
        "ebikes": 14,
        "has_ebikes": true,
        "normal_bikes": 6,
        "online": true,
        "uid": 419
      },
      "free_bikes": 20,
      "id": "54bd829993a3b684100ac9a064956b45",
      "latitude": 41.391313,
      "longitude": 2.1808391,
      "name": "PG. DE LLUIS COMPANYS (ARC DE TRIOMF)",
      "timestamp": "2024-05-28T14:45:00.142000Z"
    },
    {
      "empty_slots": 20,
      "extra": {
        "ebikes": 1,
        "has_ebikes": true,
        "normal_bikes": 0,
        "online": true,
        "uid": 100
      },
      "free_bikes": 1,
      "id": "23be479e3ea0a96b3e62bfbde867a286",
      "latitude": 41.379363,
      "longitude": 2.143868,
      "name": "C/ TARRAGONA,  159-173",
      "timestamp": "2024-05-28T14:45:00.787000Z"
    },
    {
      "empty_slots": 18,
      "extra": {
        "ebikes": 2,
        "has_ebikes": true,
        "normal_bikes": 0,
        "online": true,
        "uid": 108
      },
      "free_bikes": 2,
      "id": "efafae9cf7cf875ba960a16df971894b",
      "latitude": 41.4022081,
      "longitude": 2.1649035,
      "name": "C / INDÚSTRIA, 10",
      "timestamp": "2024-05-28T14:45:00.773000Z"
    },
    {
      "empty_slots": 22,
      "extra": {
        "ebikes": 0,
        "has_ebikes": true,
        "normal_bikes": 0,
        "online": true,
        "uid": 278
      },
      "free_bikes": 0,
      "id": "afa694b030bf59152b1649bde5a8870c",
      "latitude": 41.4098842,
      "longitude": 2.1715285,
      "name": "TRAVESSERA DE GRÀCIA, 368",
      "timestamp": "2024-05-28T14:45:00.365000Z"
    },
    {
      "empty_slots": 22,
      "extra": {
        "ebikes": 8,
        "has_ebikes": true,
        "normal_bikes": 5,
        "online": true,
        "uid": 273
      },
      "free_bikes": 13,
      "id": "c6edb376f8c2f0e7f2b70725c36402c9",
      "latitude": 41.4304126,
      "longitude": 2.1834174,
      "name": "C.C. Diagonal Mar-AV. MERIDIANA, 404",
      "timestamp": "2024-05-28T14:45:00.378000Z"
    },
    {
      "empty_slots": 20,
      "extra": {
        "ebikes": 0,
        "has_ebikes": true,
        "normal_bikes": 0,
        "online": true,
        "uid": 511
      },
      "free_bikes": 0,
      "id": "2b993294c8972929fed281e92891f252",
      "latitude": 41.4006862,
      "longitude": 2.1543317,
      "name": "C/ GRAN DE GRÀCIA, 91",
      "timestamp": "2024-05-28T14:44:59.940000Z"
    },
    {
      "empty_slots": 23,
      "extra": {
        "ebikes": 1,
        "has_ebikes": true,
        "normal_bikes": 0,
        "online": true,
        "uid": 212
      },
      "free_bikes": 1,
      "id": "be92e88c502119cf00fa9043b784f279",
      "latitude": 41.3922355,
      "longitude": 2.1309272,
      "name": "AV. SARRIÀ, 163",
      "timestamp": "2024-05-28T14:45:00.488000Z"
    },
    {
      "empty_slots": 6,
      "extra": {
        "ebikes": 2,
        "has_ebikes": true,
        "normal_bikes": 23,
        "online": true,
        "uid": 152
      },
      "free_bikes": 25,
      "id": "2ac4f6528d3b970a9fb266edd9776986",
      "latitude": 41.3993329,
      "longitude": 2.1974184,
      "name": "C/ PUJADES, 121",
      "timestamp": "2024-05-28T14:45:00.577000Z"
    },
    {
      "empty_slots": 29,
      "extra": {
        "ebikes": 2,
        "has_ebikes": true,
        "normal_bikes": 3,
        "online": true,
        "uid": 388
      },
      "free_bikes": 5,
      "id": "60e5da341ebfa80528cf1fd1995f8310",
      "latitude": 41.3806411,
      "longitude": 2.1671611,
      "name": "C/ RIERA ALTA, 6",
      "timestamp": "2024-05-28T14:45:00.194000Z"
    },
    {
      "empty_slots": 25,
      "extra": {
        "ebikes": 1,
        "has_ebikes": true,
        "normal_bikes": 0,
        "online": true,
        "uid": 277
      },
      "free_bikes": 1,
      "id": "768a668cd88b3ad269f7f0a5bb272f10",
      "latitude": 41.4082107,
      "longitude": 2.1689962,
      "name": "TRAVESSERA DE GRÀCIA, 328",
      "timestamp": "2024-05-28T14:45:00.372000Z"
    },
    {
      "empty_slots": 21,
      "extra": {
        "ebikes": 4,
        "has_ebikes": true,
        "normal_bikes": 1,
        "online": true,
        "uid": 202
      },
      "free_bikes": 5,
      "id": "16a291fb985a60b7b1a195e5a20fd7f8",
      "latitude": 41.3854466,
      "longitude": 2.1288753,
      "name": "C/ DE LES CORTS, 20",
      "timestamp": "2024-05-28T14:45:00.503000Z"
    },
    {
      "empty_slots": 23,
      "extra": {
        "ebikes": 1,
        "has_ebikes": true,
        "normal_bikes": 0,
        "online": true,
        "uid": 519
      },
      "free_bikes": 1,
      "id": "66c267ba8e1f56ad341dd17f54c369f9",
      "latitude": 41.4246548,
      "longitude": 2.166289,
      "name": "C/ PEDRELL, 52",
      "timestamp": "2024-05-28T14:44:59.905000Z"
    },
    {
      "empty_slots": 26,
      "extra": {
        "ebikes": 4,
        "has_ebikes": true,
        "normal_bikes": 0,
        "online": true,
        "uid": 241
      },
      "free_bikes": 4,
      "id": "c41a52a203d08c919f6d198e30f629af",
      "latitude": 41.419178,
      "longitude": 2.18018,
      "name": "C/ TEODOR LLORENTE, 1",
      "timestamp": "2024-05-28T14:45:00.436000Z"
    },
    {
      "empty_slots": 21,
      "extra": {
        "ebikes": 5,
        "has_ebikes": true,
        "normal_bikes": 1,
        "online": true,
        "uid": 518
      },
      "free_bikes": 6,
      "id": "faaa75871b7cee48bba7f3242d86bcbb",
      "latitude": 41.4246885,
      "longitude": 2.1570492,
      "name": "C/ LLOBREGÓS, 115",
      "timestamp": "2024-05-28T14:44:59.916000Z"
    },
    {
      "empty_slots": 21,
      "extra": {
        "ebikes": 4,
        "has_ebikes": true,
        "normal_bikes": 1,
        "online": true,
        "uid": 280
      },
      "free_bikes": 5,
      "id": "09cb8fd9f4b645c6115ab159cf8451aa",
      "latitude": 41.4138664,
      "longitude": 2.1777274,
      "name": "C/ SANT ANTONI Mª CLARET, 290-296",
      "timestamp": "2024-05-28T14:45:00.364000Z"
    },
    {
      "empty_slots": 26,
      "extra": {
        "ebikes": 0,
        "has_ebikes": true,
        "normal_bikes": 0,
        "online": true,
        "uid": 505
      },
      "free_bikes": 0,
      "id": "09257dd0300decf3aa34145b7988dbba",
      "latitude": 41.4145614,
      "longitude": 2.1658677,
      "name": "C/ CAMÈLIES, 78",
      "timestamp": "2024-05-28T14:44:59.952000Z"
    },
    {
      "empty_slots": 22,
      "extra": {
        "ebikes": 2,
        "has_ebikes": true,
        "normal_bikes": 0,
        "online": true,
        "uid": 281
      },
      "free_bikes": 2,
      "id": "23b6f7550b25fbd13f67b32e2bbde1e1",
      "latitude": 41.4180789,
      "longitude": 2.1763994,
      "name": "C/ D'ESCORNALBOU, 51",
      "timestamp": "2024-05-28T14:45:00.363000Z"
    },
    {
      "empty_slots": 23,
      "extra": {
        "ebikes": 1,
        "has_ebikes": true,
        "normal_bikes": 1,
        "online": true,
        "uid": 477
      },
      "free_bikes": 2,
      "id": "84a14ee591bad0c01cf695bfeb743c9b",
      "latitude": 41.4260751,
      "longitude": 2.1722534,
      "name": "C/ AMILCAR, 78",
      "timestamp": "2024-05-28T14:45:00.013000Z"
    },
    {
      "empty_slots": 15,
      "extra": {
        "ebikes": 8,
        "has_ebikes": true,
        "normal_bikes": 0,
        "online": true,
        "uid": 67
      },
      "free_bikes": 8,
      "id": "dc64552c5a36d359c0435849a3e36880",
      "latitude": 41.3852864,
      "longitude": 2.1454802,
      "name": "C/ ROCAFORT, 214 | C/ ROSSELLÓ",
      "timestamp": "2024-05-28T14:45:00.816000Z"
    },
    {
      "empty_slots": 24,
      "extra": {
        "ebikes": 3,
        "has_ebikes": true,
        "normal_bikes": 0,
        "online": true,
        "uid": 488
      },
      "free_bikes": 3,
      "id": "42dc5e1f94087c6cc143d7b6144a04a2",
      "latitude": 41.4347859,
      "longitude": 2.147904,
      "name": "AV. CAN MARCET, 36",
      "timestamp": "2024-05-28T14:44:59.988000Z"
    },
    {
      "empty_slots": 30,
      "extra": {
        "ebikes": 0,
        "has_ebikes": true,
        "normal_bikes": 0,
        "online": true,
        "uid": 350
      },
      "free_bikes": 0,
      "id": "fa08e8111c658f54aec120daa2fbf2e8",
      "latitude": 41.392052,
      "longitude": 2.1480223,
      "name": "C/ VILLARROEL, 208",
      "timestamp": "2024-05-28T14:45:00.238000Z"
    },
    {
      "empty_slots": 25,
      "extra": {
        "ebikes": 2,
        "has_ebikes": true,
        "normal_bikes": 0,
        "online": true,
        "uid": 308
      },
      "free_bikes": 2,
      "id": "c1a0d40374fb01ca5395a5ec4449cac4",
      "latitude": 41.37684,
      "longitude": 2.114029,
      "name": "C/ CARDENAL REIG, 11",
      "timestamp": "2024-05-28T14:45:00.313000Z"
    },
    {
      "empty_slots": 17,
      "extra": {
        "ebikes": 10,
        "has_ebikes": true,
        "normal_bikes": 4,
        "online": true,
        "uid": 151
      },
      "free_bikes": 14,
      "id": "080233252e62b5c4a5f651f1b69e7eff",
      "latitude": 41.4003471,
      "longitude": 2.1969105,
      "name": "C/ PALLARS, 182",
      "timestamp": "2024-05-28T14:45:00.578000Z"
    },
    {
      "empty_slots": 20,
      "extra": {
        "ebikes": 6,
        "has_ebikes": true,
        "normal_bikes": 0,
        "online": true,
        "uid": 422
      },
      "free_bikes": 6,
      "id": "98736433716085131ebffd1f17aa648a",
      "latitude": 41.3881175,
      "longitude": 2.1154135,
      "name": "C/ JORDI GIRONA, 29",
      "timestamp": "2024-05-28T14:45:00.137000Z"
    },
    {
      "empty_slots": 6,
      "extra": {
        "ebikes": 0,
        "has_ebikes": true,
        "normal_bikes": 15,
        "online": true,
        "uid": 53
      },
      "free_bikes": 15,
      "id": "f64f7ec154143f871bb06d378e982e0d",
      "latitude": 41.385086,
      "longitude": 2.174016,
      "name": "PL. CARLES PI I SUNYER",
      "timestamp": "2024-05-28T14:45:00.828000Z"
    },
    {
      "empty_slots": 19,
      "extra": {
        "ebikes": 0,
        "has_ebikes": true,
        "normal_bikes": 1,
        "online": true,
        "uid": 283
      },
      "free_bikes": 1,
      "id": "95caf46aca1e3505945e857b05f84f40",
      "latitude": 41.4297231,
      "longitude": 2.1617032,
      "name": "C/ FULTON, 1",
      "timestamp": "2024-05-28T14:45:00.362000Z"
    },
    {
      "empty_slots": 14,
      "extra": {
        "ebikes": 2,
        "has_ebikes": true,
        "normal_bikes": 0,
        "online": true,
        "uid": 290
      },
      "free_bikes": 2,
      "id": "22b6aea1f7b692f680a79ee5c12af878",
      "latitude": 41.4373376,
      "longitude": 2.1740962,
      "name": "PL. DELS JARDINS D'ALFÀBIA, 1",
      "timestamp": "2024-05-28T14:45:00.346000Z"
    },
    {
      "empty_slots": 24,
      "extra": {
        "ebikes": 2,
        "has_ebikes": true,
        "normal_bikes": 1,
        "online": true,
        "uid": 291
      },
      "free_bikes": 3,
      "id": "2375a6bbc305836292db4b9459bad6c4",
      "latitude": 41.426078,
      "longitude": 2.1751572,
      "name": "C/ CUBELLES, 2",
      "timestamp": "2024-05-28T14:45:00.345000Z"
    },
    {
      "empty_slots": 10,
      "extra": {
        "ebikes": 2,
        "has_ebikes": true,
        "normal_bikes": 0,
        "online": true,
        "uid": 292
      },
      "free_bikes": 2,
      "id": "11d965aa22c062de75920e2666e720a4",
      "latitude": 41.4300161,
      "longitude": 2.1720191,
      "name": "C/ AMILCAR, 1",
      "timestamp": "2024-05-28T14:45:00.344000Z"
    },
    {
      "empty_slots": 12,
      "extra": {
        "ebikes": 6,
        "has_ebikes": true,
        "normal_bikes": 0,
        "online": true,
        "uid": 300
      },
      "free_bikes": 6,
      "id": "951bf060982350664a34d1316b496f4b",
      "latitude": 41.4315843,
      "longitude": 2.1769107,
      "name": "C/ DE MALADETA, 1",
      "timestamp": "2024-05-28T14:45:00.324000Z"
    },
    {
      "empty_slots": 28,
      "extra": {
        "ebikes": 2,
        "has_ebikes": true,
        "normal_bikes": 0,
        "online": true,
        "uid": 478
      },
      "free_bikes": 2,
      "id": "8fdb03b50ec6c7d2a4fd6522f041aac6",
      "latitude": 41.4276076,
      "longitude": 2.1697582,
      "name": "C/ ESCULTOR LLIMONA, 7",
      "timestamp": "2024-05-28T14:45:00.006000Z"
    },
    {
      "empty_slots": 24,
      "extra": {
        "ebikes": 1,
        "has_ebikes": true,
        "normal_bikes": 1,
        "online": true,
        "uid": 485
      },
      "free_bikes": 2,
      "id": "ba34ae0d78db56158e7af60a1ebf475d",
      "latitude": 41.4374904,
      "longitude": 2.1565742,
      "name": "PG. VALLDAURA, 26",
      "timestamp": "2024-05-28T14:44:59.991000Z"
    },
    {
      "empty_slots": 21,
      "extra": {
        "ebikes": 2,
        "has_ebikes": true,
        "normal_bikes": 6,
        "online": true,
        "uid": 483
      },
      "free_bikes": 8,
      "id": "23f495a807f88f6a5a1a2aa73b8fb5a3",
      "latitude": 41.429561735076526,
      "longitude": 2.1589684563445877,
      "name": "C/ LISBOA, 1",
      "timestamp": "2024-05-28T14:44:59.995000Z"
    },
    {
      "empty_slots": 24,
      "extra": {
        "ebikes": 2,
        "has_ebikes": true,
        "normal_bikes": 1,
        "online": true,
        "uid": 484
      },
      "free_bikes": 3,
      "id": "515587ca0fcf6ecc240ae4ca9c4b40f0",
      "latitude": 41.4345997,
      "longitude": 2.1585268,
      "name": "C/ EDUARD TODA, 33 | C/ DOCTOR LETAMENDI",
      "timestamp": "2024-05-28T14:44:59.994000Z"
    },
    {
      "empty_slots": 21,
      "extra": {
        "ebikes": 2,
        "has_ebikes": true,
        "normal_bikes": 5,
        "online": true,
        "uid": 486
      },
      "free_bikes": 7,
      "id": "a512a25dc72978e08e197d1f2f20ae5b",
      "latitude": 41.4306102,
      "longitude": 2.1564551,
      "name": "C/ PORTO, 35 | AV. ESTATUT DE CATALUNYA",
      "timestamp": "2024-05-28T14:44:59.989000Z"
    },
    {
      "empty_slots": 10,
      "extra": {
        "ebikes": 0,
        "has_ebikes": true,
        "normal_bikes": 11,
        "online": true,
        "uid": 138
      },
      "free_bikes": 11,
      "id": "f9e2bce2fb587714a956883db5bd5689",
      "latitude": 41.4167933,
      "longitude": 2.2058345,
      "name": "GRAN VIA DE LES CORTS CATALANES, 1118",
      "timestamp": "2024-05-28T14:45:00.677000Z"
    },
    {
      "empty_slots": 2,
      "extra": {
        "ebikes": 7,
        "has_ebikes": true,
        "normal_bikes": 18,
        "online": true,
        "uid": 124
      },
      "free_bikes": 25,
      "id": "fdd54a815b9df606b7855bc3d48fe805",
      "latitude": 41.3702483,
      "longitude": 2.1878126,
      "name": "C/ NOVA  BOCANA",
      "timestamp": "2024-05-28T14:45:00.728000Z"
    },
    {
      "empty_slots": 15,
      "extra": {
        "ebikes": 9,
        "has_ebikes": true,
        "normal_bikes": 3,
        "online": true,
        "uid": 250
      },
      "free_bikes": 12,
      "id": "91ef690acc5603e3e61a905392e0cf04",
      "latitude": 41.4258248,
      "longitude": 2.191206,
      "name": "C/ PORTUGAL, 3",
      "timestamp": "2024-05-28T14:45:00.421000Z"
    },
    {
      "empty_slots": 12,
      "extra": {
        "ebikes": 1,
        "has_ebikes": true,
        "normal_bikes": 13,
        "online": true,
        "uid": 150
      },
      "free_bikes": 14,
      "id": "4695e42f21ff521e2f7f08ed7eda702d",
      "latitude": 41.4065912,
      "longitude": 2.203028,
      "name": "C/ ESPRONCEDA, 124",
      "timestamp": "2024-05-28T14:45:00.579000Z"
    },
    {
      "empty_slots": 19,
      "extra": {
        "ebikes": 0,
        "has_ebikes": true,
        "normal_bikes": 0,
        "online": true,
        "uid": 106
      },
      "free_bikes": 0,
      "id": "00028670e3d01438515caba403ffd680",
      "latitude": 41.4055198,
      "longitude": 2.1622548,
      "name": "PL  JOANIC - C / BRUNIQUER, 59",
      "timestamp": "2024-05-28T14:45:00.775000Z"
    },
    {
      "empty_slots": 19,
      "extra": {
        "ebikes": 3,
        "has_ebikes": true,
        "normal_bikes": 1,
        "online": true,
        "uid": 314
      },
      "free_bikes": 4,
      "id": "add304609643d6d30a5c15cd5432fea4",
      "latitude": 41.3783067,
      "longitude": 2.1297303,
      "name": "RAMBLA DEL BRASIL, 44",
      "timestamp": "2024-05-28T14:45:00.294000Z"
    },
    {
      "empty_slots": 20,
      "extra": {
        "ebikes": 7,
        "has_ebikes": true,
        "normal_bikes": 0,
        "online": true,
        "uid": 333
      },
      "free_bikes": 7,
      "id": "649da7e42e026afec2f1bae50f912cd1",
      "latitude": 41.3954723,
      "longitude": 2.1250451,
      "name": "PASSATGE DE SENILLOSA, 3-5",
      "timestamp": "2024-05-28T14:45:00.265000Z"
    },
    {
      "empty_slots": 17,
      "extra": {
        "ebikes": 12,
        "has_ebikes": true,
        "normal_bikes": 2,
        "online": true,
        "uid": 296
      },
      "free_bikes": 14,
      "id": "363c591f6e428ff1d478e80b6ae106b6",
      "latitude": 41.4364887,
      "longitude": 2.1841014,
      "name": "C/ DE ROSSELLÓ I PORCEL, 1/AV.MERIDIANA",
      "timestamp": "2024-05-28T14:45:00.332000Z"
    },
    {
      "empty_slots": 14,
      "extra": {
        "ebikes": 13,
        "has_ebikes": true,
        "normal_bikes": 0,
        "online": true,
        "uid": 435
      },
      "free_bikes": 13,
      "id": "7bfc210262d212fae21b9bd6e5134d40",
      "latitude": 41.383585,
      "longitude": 2.112186,
      "name": "AV. DOCTOR MARAÑON, 25 | C/ PAU GARGALLO",
      "timestamp": "2024-05-28T14:45:00.100000Z"
    },
    {
      "empty_slots": 22,
      "extra": {
        "ebikes": 4,
        "has_ebikes": true,
        "normal_bikes": 5,
        "online": true,
        "uid": 275
      },
      "free_bikes": 9,
      "id": "a08c92d249cec30792553ab20536cf99",
      "latitude": 41.43068,
      "longitude": 2.1821802,
      "name": "AV. RIO DE JANEIRO, 3",
      "timestamp": "2024-05-28T14:45:00.377000Z"
    },
    {
      "empty_slots": 28,
      "extra": {
        "ebikes": 3,
        "has_ebikes": true,
        "normal_bikes": 0,
        "online": true,
        "uid": 122
      },
      "free_bikes": 3,
      "id": "455446f63c8b93fac65bf23a56262efb",
      "latitude": 41.4054458,
      "longitude": 2.1663172,
      "name": "C/ NÀPOLS, 344",
      "timestamp": "2024-05-28T14:45:00.736000Z"
    },
    {
      "empty_slots": 11,
      "extra": {
        "ebikes": 3,
        "has_ebikes": true,
        "normal_bikes": 11,
        "online": true,
        "uid": 143
      },
      "free_bikes": 14,
      "id": "1750df4f9a4a35c6fcdcb16d05a633b4",
      "latitude": 41.4027907,
      "longitude": 2.1956161,
      "name": "C/ SANCHO DE ÁVILA, 170 / LLACUNA",
      "timestamp": "2024-05-28T14:45:00.585000Z"
    },
    {
      "empty_slots": 14,
      "extra": {
        "ebikes": 3,
        "has_ebikes": true,
        "normal_bikes": 2,
        "online": true,
        "uid": 456
      },
      "free_bikes": 5,
      "id": "bfe7a747985c502d0aabe4efe0847b8f",
      "latitude": 41.4143392,
      "longitude": 2.1874539,
      "name": "C/ MÚRCIA, 1",
      "timestamp": "2024-05-28T14:45:00.052000Z"
    },
    {
      "empty_slots": 24,
      "extra": {
        "ebikes": 0,
        "has_ebikes": true,
        "normal_bikes": 3,
        "online": true,
        "uid": 295
      },
      "free_bikes": 3,
      "id": "108f46fa37b199e3a56017d8ae34309e",
      "latitude": 41.433384,
      "longitude": 2.1716309,
      "name": "C/ SANT ISCLE, 60",
      "timestamp": "2024-05-28T14:45:00.333000Z"
    },
    {
      "empty_slots": 13,
      "extra": {
        "ebikes": 3,
        "has_ebikes": true,
        "normal_bikes": 8,
        "online": true,
        "uid": 294
      },
      "free_bikes": 11,
      "id": "4f35587b5a87254f405a876d473846c4",
      "latitude": 41.4363473,
      "longitude": 2.1706752,
      "name": "SEU DEL DISTRICTE (NOU BARRIS)",
      "timestamp": "2024-05-28T14:45:00.334000Z"
    },
    {
      "empty_slots": 29,
      "extra": {
        "ebikes": 3,
        "has_ebikes": true,
        "normal_bikes": 1,
        "online": true,
        "uid": 298
      },
      "free_bikes": 4,
      "id": "43cdddea3c798a5ce5c81ad93210d498",
      "latitude": 41.4347233,
      "longitude": 2.1817718,
      "name": "C/ ANDREU NIN, 22",
      "timestamp": "2024-05-28T14:45:00.328000Z"
    },
    {
      "empty_slots": 24,
      "extra": {
        "ebikes": 1,
        "has_ebikes": true,
        "normal_bikes": 1,
        "online": true,
        "uid": 299
      },
      "free_bikes": 2,
      "id": "e8f93835abfe9d85300bc608484fe11c",
      "latitude": 41.4340849,
      "longitude": 2.1748267,
      "name": "C/ DE L'ESCULTOR ORDÓÑEZ, 55",
      "timestamp": "2024-05-28T14:45:00.324000Z"
    },
    {
      "empty_slots": 24,
      "extra": {
        "ebikes": 0,
        "has_ebikes": true,
        "normal_bikes": 0,
        "online": true,
        "uid": 472
      },
      "free_bikes": 0,
      "id": "0a5863be2a7bf9d1a16bfe4461a8f6d0",
      "latitude": 41.4427374,
      "longitude": 2.170393,
      "name": "VIA FAVÈNCIA, 186",
      "timestamp": "2024-05-28T14:45:00.017000Z"
    },
    {
      "empty_slots": 12,
      "extra": {
        "ebikes": 2,
        "has_ebikes": true,
        "normal_bikes": 6,
        "online": true,
        "uid": 467
      },
      "free_bikes": 8,
      "id": "5e949bd62eec0a3872120b7300358308",
      "latitude": 41.4450463,
      "longitude": 2.176726,
      "name": "PL. JESÚS CARRASCO",
      "timestamp": "2024-05-28T14:45:00.035000Z"
    },
    {
      "empty_slots": 21,
      "extra": {
        "ebikes": 2,
        "has_ebikes": true,
        "normal_bikes": 0,
        "online": true,
        "uid": 464
      },
      "free_bikes": 2,
      "id": "15603e849340dd9808548b709d679f56",
      "latitude": 41.439692,
      "longitude": 2.182335,
      "name": "AV. RIO DE JANEIRO, 96",
      "timestamp": "2024-05-28T14:45:00.038000Z"
    },
    {
      "empty_slots": 17,
      "extra": {
        "ebikes": 6,
        "has_ebikes": true,
        "normal_bikes": 6,
        "online": true,
        "uid": 466
      },
      "free_bikes": 12,
      "id": "22fab28014c789ae790f6cec7ce8696b",
      "latitude": 41.443387,
      "longitude": 2.1813051,
      "name": "C/ PABLO IGLESIAS, 21",
      "timestamp": "2024-05-28T14:45:00.036000Z"
    },
    {
      "empty_slots": 23,
      "extra": {
        "ebikes": 0,
        "has_ebikes": true,
        "normal_bikes": 0,
        "online": true,
        "uid": 471
      },
      "free_bikes": 0,
      "id": "209936f04819af74dbbbbb11324f1698",
      "latitude": 41.4389014,
      "longitude": 2.1715576,
      "name": "PG. VALLDAURA, 171",
      "timestamp": "2024-05-28T14:45:00.017000Z"
    },
    {
      "empty_slots": 27,
      "extra": {
        "ebikes": 2,
        "has_ebikes": true,
        "normal_bikes": 21,
        "online": true,
        "uid": 180
      },
      "free_bikes": 23,
      "id": "c55705a98f23d2296c39a68af7876656",
      "latitude": 41.3675574,
      "longitude": 2.1388216,
      "name": "GRAN VIA DE LES CORTS CATALANES, 179 (D)",
      "timestamp": "2024-05-28T14:45:00.536000Z"
    },
    {
      "empty_slots": 8,
      "extra": {
        "ebikes": 4,
        "has_ebikes": true,
        "normal_bikes": 15,
        "online": true,
        "uid": 409
      },
      "free_bikes": 19,
      "id": "e836f33eaf19175d32d4b8042594331a",
      "latitude": 41.392384,
      "longitude": 2.1925059,
      "name": "C/ JOAN D'ÀUSTRIA, 31B",
      "timestamp": "2024-05-28T14:45:00.163000Z"
    },
    {
      "empty_slots": 12,
      "extra": {
        "ebikes": 8,
        "has_ebikes": true,
        "normal_bikes": 9,
        "online": true,
        "uid": 342
      },
      "free_bikes": 17,
      "id": "38ebb650dd9d97eed0737b715bc34c1a",
      "latitude": 41.4034967,
      "longitude": 2.1936584,
      "name": "C/ ROC BORONAT, 134",
      "timestamp": "2024-05-28T14:45:00.249000Z"
    },
    {
      "empty_slots": 24,
      "extra": {
        "ebikes": 3,
        "has_ebikes": true,
        "normal_bikes": 1,
        "online": true,
        "uid": 461
      },
      "free_bikes": 4,
      "id": "86e626699f549ebeb2ca9b69042b5d92",
      "latitude": 41.442489,
      "longitude": 2.185727,
      "name": "AV. RIO DE JANEIRO, 118",
      "timestamp": "2024-05-28T14:45:00.044000Z"
    },
    {
      "empty_slots": 25,
      "extra": {
        "ebikes": 2,
        "has_ebikes": true,
        "normal_bikes": 1,
        "online": true,
        "uid": 462
      },
      "free_bikes": 3,
      "id": "b543814d13e0580dc044f98f50c910bb",
      "latitude": 41.446923,
      "longitude": 2.184857,
      "name": "C/ PALAMÓS, 33",
      "timestamp": "2024-05-28T14:45:00.039000Z"
    },
    {
      "empty_slots": 21,
      "extra": {
        "ebikes": 2,
        "has_ebikes": true,
        "normal_bikes": 1,
        "online": true,
        "uid": 463
      },
      "free_bikes": 3,
      "id": "b6047e107523ffec8ad208d60a863d1a",
      "latitude": 41.4490679,
      "longitude": 2.1833801,
      "name": "C/ PEDROSA, 24",
      "timestamp": "2024-05-28T14:45:00.038000Z"
    },
    {
      "empty_slots": 0,
      "extra": {
        "ebikes": 6,
        "has_ebikes": true,
        "normal_bikes": 20,
        "online": true,
        "uid": 149
      },
      "free_bikes": 26,
      "id": "0e3c6e1e8a235e4f609e6576314a8439",
      "latitude": 41.3958685,
      "longitude": 2.192952,
      "name": "C/ PUJADES, 57B",
      "timestamp": "2024-05-28T14:45:00.580000Z"
    },
    {
      "empty_slots": 25,
      "extra": {
        "ebikes": 0,
        "has_ebikes": true,
        "normal_bikes": 0,
        "online": true,
        "uid": 316
      },
      "free_bikes": 0,
      "id": "5ba9b6be5098ba3b2cbcb81149a5f7c6",
      "latitude": 41.4224015,
      "longitude": 2.198071,
      "name": "C/ CANTÀBRIA, 55",
      "timestamp": "2024-05-28T14:45:00.290000Z"
    },
    {
      "empty_slots": 12,
      "extra": {
        "ebikes": 8,
        "has_ebikes": true,
        "normal_bikes": 8,
        "online": true,
        "uid": 211
      },
      "free_bikes": 16,
      "id": "d5f71274f2fcb44cf751cbf8e7b7c700",
      "latitude": 41.3987543,
      "longitude": 2.1902116,
      "name": "C/ SANCHO DE ÁVILA, 60-64",
      "timestamp": "2024-05-28T14:45:00.489000Z"
    },
    {
      "empty_slots": 2,
      "extra": {
        "ebikes": 0,
        "has_ebikes": true,
        "normal_bikes": 24,
        "online": true,
        "uid": 341
      },
      "free_bikes": 24,
      "id": "1369607dbd27029b530192d858bc0587",
      "latitude": 41.4339212,
      "longitude": 2.2062245,
      "name": "PG. D'ENRIC SANCHIS, 33",
      "timestamp": "2024-05-28T14:45:00.250000Z"
    },
    {
      "empty_slots": 11,
      "extra": {
        "ebikes": 1,
        "has_ebikes": true,
        "normal_bikes": 12,
        "online": true,
        "uid": 340
      },
      "free_bikes": 13,
      "id": "cf23d88209be498ef58d4a397afecf46",
      "latitude": 41.4361782,
      "longitude": 2.2047037,
      "name": "C/ SANT ADRIÀ, 113",
      "timestamp": "2024-05-28T14:45:00.251000Z"
    },
    {
      "empty_slots": 18,
      "extra": {
        "ebikes": 1,
        "has_ebikes": true,
        "normal_bikes": 1,
        "online": true,
        "uid": 269
      },
      "free_bikes": 2,
      "id": "ed4251264bc9b6f96c35c3dc83b6cfb2",
      "latitude": 41.448152,
      "longitude": 2.19294,
      "name": "VIA BARCINO, 121",
      "timestamp": "2024-05-28T14:45:00.382000Z"
    },
    {
      "empty_slots": 11,
      "extra": {
        "ebikes": 3,
        "has_ebikes": true,
        "normal_bikes": 4,
        "online": true,
        "uid": 457
      },
      "free_bikes": 7,
      "id": "f35b1f7f5f0ff3970a90b96640059a32",
      "latitude": 41.4383117,
      "longitude": 2.2039823,
      "name": "C/ GRANADELLA, 10-19 | C/ SAS",
      "timestamp": "2024-05-28T14:45:00.051000Z"
    },
    {
      "empty_slots": 20,
      "extra": {
        "ebikes": 1,
        "has_ebikes": true,
        "normal_bikes": 6,
        "online": true,
        "uid": 270
      },
      "free_bikes": 7,
      "id": "5a6414864fcc3c3d8b88fa7c62aabbac",
      "latitude": 41.4486328,
      "longitude": 2.1898372,
      "name": "270 - CRTA. DE RIBES, 77 (TRINITAT VELLA)",
      "timestamp": "2024-05-28T14:45:00.381000Z"
    },
    {
      "empty_slots": 8,
      "extra": {
        "ebikes": 3,
        "has_ebikes": true,
        "normal_bikes": 13,
        "online": true,
        "uid": 458
      },
      "free_bikes": 16,
      "id": "a6d71c2346845ecd60f36a4917082f57",
      "latitude": 41.4457962,
      "longitude": 2.2010422,
      "name": "C/ TUCUMÁN, 21",
      "timestamp": "2024-05-28T14:45:00.050000Z"
    },
    {
      "empty_slots": 10,
      "extra": {
        "ebikes": 2,
        "has_ebikes": true,
        "normal_bikes": 3,
        "online": true,
        "uid": 460
      },
      "free_bikes": 5,
      "id": "b121b1383d4269226f7d5bb7be520c19",
      "latitude": 41.4513863,
      "longitude": 2.1894717,
      "name": "C/ MIREIA, 28",
      "timestamp": "2024-05-28T14:45:00.045000Z"
    },
    {
      "empty_slots": 18,
      "extra": {
        "ebikes": 4,
        "has_ebikes": true,
        "normal_bikes": 5,
        "online": true,
        "uid": 343
      },
      "free_bikes": 9,
      "id": "0c539fabc4dc46d8b5ceb3be59fce5d1",
      "latitude": 41.4389609,
      "longitude": 2.1996179,
      "name": "CAMPANA DE LA MAQUINISTA (SAO PAULO I PL. DE",
      "timestamp": "2024-05-28T14:45:00.248000Z"
    },
    {
      "empty_slots": 11,
      "extra": {
        "ebikes": 3,
        "has_ebikes": true,
        "normal_bikes": 1,
        "online": true,
        "uid": 285
      },
      "free_bikes": 4,
      "id": "6627cf97075521a6295e0364ae4d4e7f",
      "latitude": 41.4366708,
      "longitude": 2.186105,
      "name": "C/ MALATS, 98-100",
      "timestamp": "2024-05-28T14:45:00.360000Z"
    },
    {
      "empty_slots": 23,
      "extra": {
        "ebikes": 1,
        "has_ebikes": true,
        "normal_bikes": 0,
        "online": true,
        "uid": 508
      },
      "free_bikes": 1,
      "id": "4f0c56ea18d30a06609a7947f8645968",
      "latitude": 41.4090922,
      "longitude": 2.1656378,
      "name": "C/ SARDENYA, 465",
      "timestamp": "2024-05-28T14:44:59.950000Z"
    },
    {
      "empty_slots": 15,
      "extra": {
        "ebikes": 0,
        "has_ebikes": true,
        "normal_bikes": 2,
        "online": true,
        "uid": 22
      },
      "free_bikes": 2,
      "id": "0ca177aa7f157d4fd9ee72679f6d3b79",
      "latitude": 41.4016969,
      "longitude": 2.175767,
      "name": "C/ SARDENYA, 292",
      "timestamp": "2024-05-28T14:45:00.857000Z"
    },
    {
      "empty_slots": 23,
      "extra": {
        "ebikes": 3,
        "has_ebikes": true,
        "normal_bikes": 4,
        "online": true,
        "uid": 349
      },
      "free_bikes": 7,
      "id": "9c003bbd85b2e441cd85d2fe1142f1b9",
      "latitude": 41.3573288,
      "longitude": 2.1371996,
      "name": "C/ DE L'ENERGIA, 2 / ALTS FORNS",
      "timestamp": "2024-05-28T14:45:00.238000Z"
    },
    {
      "empty_slots": 10,
      "extra": {
        "ebikes": 4,
        "has_ebikes": true,
        "normal_bikes": 6,
        "online": true,
        "uid": 263
      },
      "free_bikes": 10,
      "id": "693793a79f93ebddb37e1610e5e0f952",
      "latitude": 41.4378773,
      "longitude": 2.1910691,
      "name": "PG. TORRAS I BAGES, 29",
      "timestamp": "2024-05-28T14:45:00.395000Z"
    },
    {
      "empty_slots": 16,
      "extra": {
        "ebikes": 6,
        "has_ebikes": true,
        "normal_bikes": 4,
        "online": true,
        "uid": 132
      },
      "free_bikes": 10,
      "id": "92f3c47fc8b2520293d84e3b509b6fda",
      "latitude": 41.4084796,
      "longitude": 2.192042,
      "name": "PL.VALENTÍ ALMIRALL",
      "timestamp": "2024-05-28T14:45:00.683000Z"
    },
    {
      "empty_slots": 17,
      "extra": {
        "ebikes": 5,
        "has_ebikes": true,
        "normal_bikes": 1,
        "online": true,
        "uid": 482
      },
      "free_bikes": 6,
      "id": "d2e118344ec10c3c2273a95a405fb7c3",
      "latitude": 41.4372022,
      "longitude": 2.1620235,
      "name": "PG. UNIVERSAL, 29 | C/ DOCTOR LETAMENDI",
      "timestamp": "2024-05-28T14:44:59.995000Z"
    },
    {
      "empty_slots": 25,
      "extra": {
        "ebikes": 1,
        "has_ebikes": true,
        "normal_bikes": 9,
        "online": true,
        "uid": 139
      },
      "free_bikes": 10,
      "id": "f28ea408c98c269ec16dd1a110ba77cc",
      "latitude": 41.4183999,
      "longitude": 2.2058133,
      "name": "GRAN VIA DE LES CORTS CATALANES,  1131",
      "timestamp": "2024-05-28T14:45:00.660000Z"
    },
    {
      "empty_slots": 13,
      "extra": {
        "ebikes": 7,
        "has_ebikes": true,
        "normal_bikes": 7,
        "online": true,
        "uid": 232
      },
      "free_bikes": 14,
      "id": "72bc86b0e6f5364b92c28ab778551602",
      "latitude": 41.3732903,
      "longitude": 2.1710273,
      "name": "C/ MATA, 2",
      "timestamp": "2024-05-28T14:45:00.454000Z"
    },
    {
      "empty_slots": 5,
      "extra": {
        "ebikes": 5,
        "has_ebikes": true,
        "normal_bikes": 21,
        "online": true,
        "uid": 402
      },
      "free_bikes": 26,
      "id": "26b8f6b463d3b12280093545d6d64c5f",
      "latitude": 41.380628,
      "longitude": 2.1821917,
      "name": "PG. DE COLOM (VIA LAIETANA)",
      "timestamp": "2024-05-28T14:45:00.167000Z"
    },
    {
      "empty_slots": 15,
      "extra": {
        "ebikes": 8,
        "has_ebikes": true,
        "normal_bikes": 0,
        "online": true,
        "uid": 188
      },
      "free_bikes": 8,
      "id": "d75f6859f1594fbe1c608d67b3e0bce9",
      "latitude": 41.3756948,
      "longitude": 2.1358571,
      "name": "PG. SANT ANTONI /PL. SANTS",
      "timestamp": "2024-05-28T14:45:00.521000Z"
    },
    {
      "empty_slots": 26,
      "extra": {
        "ebikes": 1,
        "has_ebikes": true,
        "normal_bikes": 0,
        "online": true,
        "uid": 429
      },
      "free_bikes": 1,
      "id": "16542042e0f60846cf29c95a67c22624",
      "latitude": 41.3881262,
      "longitude": 2.1091535,
      "name": "C/ GRAN CAPITÀ, 9",
      "timestamp": "2024-05-28T14:45:00.121000Z"
    },
    {
      "empty_slots": 13,
      "extra": {
        "ebikes": 4,
        "has_ebikes": true,
        "normal_bikes": 3,
        "online": true,
        "uid": 117
      },
      "free_bikes": 7,
      "id": "7be8b5ea66e4126db598f2c674953f92",
      "latitude": 41.3906051,
      "longitude": 2.1972309,
      "name": "C/ ROSA SENSAT, 12",
      "timestamp": "2024-05-28T14:45:00.764000Z"
    },
    {
      "empty_slots": 15,
      "extra": {
        "ebikes": 2,
        "has_ebikes": true,
        "normal_bikes": 5,
        "online": true,
        "uid": 137
      },
      "free_bikes": 7,
      "id": "cbe83a0b2a3af4cd0a86cf4a0e2be928",
      "latitude": 41.4145805,
      "longitude": 2.2008139,
      "name": "GRAN VIA DE LES CORTS CATALANES, 1041",
      "timestamp": "2024-05-28T14:45:00.678000Z"
    },
    {
      "empty_slots": 2,
      "extra": {
        "ebikes": 4,
        "has_ebikes": true,
        "normal_bikes": 19,
        "online": true,
        "uid": 165
      },
      "free_bikes": 23,
      "id": "00e4814116fc414fb00b93cc1c9aa1ca",
      "latitude": 41.3992169,
      "longitude": 2.2041415,
      "name": "C/ DEL DOCTOR TRUETA, 222",
      "timestamp": "2024-05-28T14:45:00.554000Z"
    },
    {
      "empty_slots": 5,
      "extra": {
        "ebikes": 1,
        "has_ebikes": true,
        "normal_bikes": 21,
        "online": true,
        "uid": 166
      },
      "free_bikes": 22,
      "id": "0c4cac5891975861c141dbd44374cd54",
      "latitude": 41.4008312,
      "longitude": 2.206645,
      "name": "C/ BILBAO, 2",
      "timestamp": "2024-05-28T14:45:00.553000Z"
    },
    {
      "empty_slots": 27,
      "extra": {
        "ebikes": 1,
        "has_ebikes": true,
        "normal_bikes": 11,
        "online": true,
        "uid": 142
      },
      "free_bikes": 12,
      "id": "1747e401e4657c8c550ffd30791cbfe5",
      "latitude": 41.4003793,
      "longitude": 2.1924144,
      "name": "C/ SANCHO DE ÁVILA,  104 - C/ BADAJOZ",
      "timestamp": "2024-05-28T14:45:00.586000Z"
    },
    {
      "empty_slots": 24,
      "extra": {
        "ebikes": 3,
        "has_ebikes": true,
        "normal_bikes": 0,
        "online": true,
        "uid": 504
      },
      "free_bikes": 3,
      "id": "ab5aed96eeda51ba68ab88cfeb6d6201",
      "latitude": 41.4092333,
      "longitude": 2.1557747,
      "name": "C/ MASSENS, 76",
      "timestamp": "2024-05-28T14:44:59.953000Z"
    },
    {
      "empty_slots": 11,
      "extra": {
        "ebikes": 5,
        "has_ebikes": true,
        "normal_bikes": 3,
        "online": true,
        "uid": 475
      },
      "free_bikes": 8,
      "id": "790df2a3ab9214fa167cefd9b4933ec2",
      "latitude": 41.4216738,
      "longitude": 2.1799878,
      "name": "C/ CAMPO FLORIDO, 66",
      "timestamp": "2024-05-28T14:45:00.014000Z"
    },
    {
      "empty_slots": 16,
      "extra": {
        "ebikes": 7,
        "has_ebikes": true,
        "normal_bikes": 3,
        "online": true,
        "uid": 127
      },
      "free_bikes": 10,
      "id": "f312a0132032a3ac10803bb9e621e117",
      "latitude": 41.4120681,
      "longitude": 2.1907524,
      "name": "C/ ARAGÓ, 659 /NAVAS DE TOLOSA",
      "timestamp": "2024-05-28T14:45:00.711000Z"
    },
    {
      "empty_slots": 1,
      "extra": {
        "ebikes": 17,
        "has_ebikes": true,
        "normal_bikes": 15,
        "online": true,
        "uid": 157
      },